stop_id,stop_name,stop_desc,platform_code,ja-Hrkt,en,zh-Hans,zh-Hant,ko,Flat,Comm Pass,Ward
3310,河原町三条,河原町三条(D),D,かわらまちさんじょう,Kawaramachi Sanjo,河原町三条,河原町三条,가와라마치산조,0,1,中
3320,河原町三条,河原町三条(C),C,かわらまちさんじょう,Kawaramachi Sanjo,河原町三条,河原町三条,가와라마치산조,0,1,中
3330,河原町三条,河原町三条(B),B,かわらまちさんじょう,Kawaramachi Sanjo,河原町三条,河原町三条,가와라마치산조,0,1,中
3340,河原町三条,河原町三条(A),A,かわらまちさんじょう,Kawaramachi Sanjo,河原町三条,河原町三条,가와라마치산조,0,1,中
3410,河原町三条,河原町三条(H),H,かわらまちさんじょう,Kawaramachi Sanjo,河原町三条,河原町三条,가와라마치산조,0,1,中
3420,河原町三条,河原町三条(G),G,かわらまちさんじょう,Kawaramachi Sanjo,河原町三条,河原町三条,가와라마치산조,0,1,中
3430,河原町三条,河原町三条(F),F,かわらまちさんじょう,Kawaramachi Sanjo,河原町三条,河原町三条,가와라마치산조,0,1,中
3440,河原町三条,河原町三条(E),E,かわらまちさんじょう,Kawaramachi Sanjo,河原町三条,河原町三条,가와라마치산조,0,1,中
4110,京都市役所前,京都市役所前(B),B,きょうとしやくしょまえ,Kyoto Shiyakusho-mae (Kyoto City Hall),京都市役所前（京都市政府）,京都市役所前（京都市政府）,교토시야쿠쇼마에（교토시청）,0,1,中
4120,京都市役所前,京都市役所前(D),D,きょうとしやくしょまえ,Kyoto Shiyakusho-mae (Kyoto City Hall),京都市役所前（京都市政府）,京都市役所前（京都市政府）,교토시야쿠쇼마에（교토시청）,0,1,中
4200,京都市役所前,京都市役所前(C),C,きょうとしやくしょまえ,Kyoto Shiyakusho-mae (Kyoto City Hall),京都市役所前（京都市政府）,京都市役所前（京都市政府）,교토시야쿠쇼마에（교토시청）,0,1,中
4300,京都市役所前,京都市役所前(A),A,きょうとしやくしょまえ,Kyoto Shiyakusho-mae (Kyoto City Hall),京都市役所前（京都市政府）,京都市役所前（京都市政府）,교토시야쿠쇼마에（교토시청）,0,1,中
4400,京都市役所前,京都市役所前(E),E,きょうとしやくしょまえ,Kyoto Shiyakusho-mae (Kyoto City Hall),京都市役所前（京都市政府）,京都市役所前（京都市政府）,교토시야쿠쇼마에（교토시청）,0,1,中
5100,河原町丸太町,河原町丸太町(D),D,かわらまちまるたまち,Kawaramachi Marutamachi,河原町丸太町,河原町丸太町,가와라마치마루타마치,0,1,上
5200,河原町丸太町,河原町丸太町(B),B,かわらまちまるたまち,Kawaramachi Marutamachi,河原町丸太町,河原町丸太町,가와라마치마루타마치,0,1,上
5300,河原町丸太町,河原町丸太町(A),A,かわらまちまるたまち,Kawaramachi Marutamachi,河原町丸太町,河原町丸太町,가와라마치마루타마치,0,1,上
5400,河原町丸太町,河原町丸太町(C),C,かわらまちまるたまち,Kawaramachi Marutamachi,河原町丸太町,河原町丸太町,가와라마치마루타마치,0,1,上
6300,府立医大病院前,府立医大病院前(南行),A,ふりついだいびょういんまえ,Furitsu Idaibyoin-mae (University Hospital / Kyoto Prefectural University of Medicine),府立医大病院前（京都府立医科大学医院）,府立醫大病院前（京都府立醫科大學附屬醫院）,후리쓰이다이뵤인마에（교토부립의과대학부속병원）,0,1,上
6400,府立医大病院前,府立医大病院前(北行),B,ふりついだいびょういんまえ,Furitsu Idaibyoin-mae (University Hospital / Kyoto Prefectural University of Medicine),府立医大病院前（京都府立医科大学医院）,府立醫大病院前（京都府立醫科大學附屬醫院）,후리쓰이다이뵤인마에（교토부립의과대학부속병원）,0,1,上
8110,河原町今出川,河原町今出川(A),A,かわらまちいまでがわ,Kawaramachi Imadegawa,河原町今出川,河原町今出川,가와라마치이마데가와,0,1,上
8120,河原町今出川,河原町今出川(E),E,かわらまちいまでがわ,Kawaramachi Imadegawa,河原町今出川,河原町今出川,가와라마치이마데가와,0,1,上
8200,河原町今出川,河原町今出川(D),D,かわらまちいまでがわ,Kawaramachi Imadegawa,河原町今出川,河原町今出川,가와라마치이마데가와,0,1,上
8300,河原町今出川,河原町今出川(B),B,かわらまちいまでがわ,Kawaramachi Imadegawa,河原町今出川,河原町今出川,가와라마치이마데가와,0,1,上
8400,河原町今出川,河原町今出川(C),C,かわらまちいまでがわ,Kawaramachi Imadegawa,河原町今出川,河原町今出川,가와라마치이마데가와,0,1,上
9100,出町柳駅前,出町柳駅前(B),B,でまちやなぎえきまえ,Demachiyanagi Station,出町柳站前,出町柳車站前,데마치야나기에키마에,0,1,上
9200,出町柳駅前,出町柳駅前(A),A,でまちやなぎえきまえ,Demachiyanagi Station,出町柳站前,出町柳車站前,데마치야나기에키마에,0,1,上
9310,出町柳駅前,出町柳駅前(D),D,でまちやなぎえきまえ,Demachiyanagi Station,出町柳站前,出町柳車站前,데마치야나기에키마에,0,1,上
9400,出町柳駅前,出町柳駅前(C),C,でまちやなぎえきまえ,Demachiyanagi Station,出町柳站前,出町柳車站前,데마치야나기에키마에,0,1,上
10300,新葵橋,新葵橋(南行),,しんあおいばし,Shin-Aoibashi,新葵桥,新葵橋,신아오이바시,0,1,左
10400,新葵橋,新葵橋(北行),,しんあおいばし,Shin-Aoibashi,新葵桥,新葵橋,신아오이바시,0,1,左
11300,糺ノ森,糺ノ森(南行),,ただすのもり,Tadasunomori,纠之森,糺之森,다다스노모리,0,1,左
11400,糺ノ森,糺ノ森(北行),,ただすのもり,Tadasunomori,纠之森,糺之森,다다스노모리,0,1,左
12300,下鴨神社前,下鴨神社前(南行),A,しもがもじんじゃまえ,Shimogamo Jinja-mae (Shimogamo-jinja Shrine),下鸭神社前,下鴨神社前,시모가모진자마에,0,1,左
12400,下鴨神社前,下鴨神社前(北行),B,しもがもじんじゃまえ,Shimogamo Jinja-mae (Shimogamo-jinja Shrine),下鸭神社前,下鴨神社前,시모가모진자마에,0,1,左
13300,一本松,一本松(南行),,いっぽんまつ,Ipponmatsu,一本松,一本松,잇폰마쓰,0,1,左
13400,一本松,一本松(北行),,いっぽんまつ,Ipponmatsu,一本松,一本松,잇폰마쓰,0,1,左
14100,洛北高校前,洛北高校前(A),A,らくほくこうこうまえ,Rakuhoku Koko-mae,洛北高中前,洛北高校前,라쿠호쿠코코마에,0,1,左
14200,洛北高校前,洛北高校前(D),D,らくほくこうこうまえ,Rakuhoku Koko-mae,洛北高中前,洛北高校前,라쿠호쿠코코마에,0,1,左
14300,洛北高校前,洛北高校前(B),B,らくほくこうこうまえ,Rakuhoku Koko-mae,洛北高中前,洛北高校前,라쿠호쿠코코마에,0,1,左
14400,洛北高校前,洛北高校前(C),C,らくほくこうこうまえ,Rakuhoku Koko-mae,洛北高中前,洛北高校前,라쿠호쿠코코마에,0,1,左
15100,府立大学前,府立大学前(東行),A,ふりつだいがくまえ,Furitsu Daigaku-mae (Kyoto Prefectural University),府立大学前（京都府立大学）,府立大學前（京都府立大學）,후리쓰다이가쿠마에（교토부립대학）,0,1,左
15200,府立大学前,府立大学前(西行),B,ふりつだいがくまえ,Furitsu Daigaku-mae (Kyoto Prefectural University),府立大学前（京都府立大学）,府立大學前（京都府立大學）,후리쓰다이가쿠마에（교토부립대학）,0,1,左
16100,植物園前,植物園前(東行),A,しょくぶつえんまえ,Shokubutsuen-mae (Botanical Gardens),植物园前,植物園前,쇼쿠부쓰엔마에,0,1,左
16200,植物園前,植物園前(西行),B,しょくぶつえんまえ,Shokubutsuen-mae (Botanical Gardens),植物园前,植物園前,쇼쿠부쓰엔마에,0,1,左
17100,烏丸北大路,烏丸北大路(A),A,からすまきたおおじ,Karasuma Kitaoji,乌丸北大路,烏丸北大路,가라스마키타오지,0,1,北
17200,烏丸北大路,烏丸北大路(B),B,からすまきたおおじ,Karasuma Kitaoji,乌丸北大路,烏丸北大路,가라스마키타오지,0,1,北
17300,烏丸北大路,烏丸北大路(C),C,からすまきたおおじ,Karasuma Kitaoji,乌丸北大路,烏丸北大路,가라스마키타오지,0,1,北
17400,烏丸北大路,烏丸北大路(D),D,からすまきたおおじ,Karasuma Kitaoji,乌丸北大路,烏丸北大路,가라스마키타오지,0,1,北
18100,北大路新町,北大路新町(東行),A,きたおおじしんまち,Kitaoji Shinmachi,北大路新町,北大路新町,기타오지신마치,0,1,北
18200,北大路新町,北大路新町(西行),,きたおおじしんまち,Kitaoji Shinmachi,北大路新町,北大路新町,기타오지신마치,0,1,北
20100,元町,元町(東行),,もとまち,Motomachi,元町,元町,모토마치,0,1,北
20200,元町,元町(西行),,もとまち,Motomachi,元町,元町,모토마치,0,1,北
21100,上堀川,上堀川(A),A,かみほりかわ,Kami-Horikawa,上堀川,上堀川,가미호리카와,0,1,北
21200,上堀川,上堀川(B),B,かみほりかわ,Kami-Horikawa,上堀川,上堀川,가미호리카와,0,1,北
21300,上堀川,上堀川(C),C,かみほりかわ,Kami-Horikawa,上堀川,上堀川,가미호리카와,0,1,北
21400,上堀川,上堀川(D),D,かみほりかわ,Kami-Horikawa,上堀川,上堀川,가미호리카와,0,1,北
22100,下緑町,下緑町(東行),,しもみどりちょう,Shimomidoricho,下绿町,下綠町,시모미도리초,0,1,北
22200,下緑町,下緑町(西行),,しもみどりちょう,Shimomidoricho,下绿町,下綠町,시모미도리초,0,1,北
23100,常徳寺前,常徳寺前(東行),,じょうとくじまえ,Jotokuji-mae,常德寺前,常徳寺前,조토쿠지마에,0,1,北
23200,常徳寺前,常徳寺前(西行),,じょうとくじまえ,Jotokuji-mae,常德寺前,常徳寺前,조토쿠지마에,0,1,北
24100,紫野泉堂町,紫野泉堂町(東行),A,むらさきのせんどうちょう,Murasakino Sendocho,紫野泉堂町,紫野泉堂町,무라사키노센도초,0,1,北
24300,紫野泉堂町,紫野泉堂町(南行),B,むらさきのせんどうちょう,Murasakino Sendocho,紫野泉堂町,紫野泉堂町,무라사키노센도초,0,1,北
24400,紫野泉堂町,紫野泉堂町(北行),C,むらさきのせんどうちょう,Murasakino Sendocho,紫野泉堂町,紫野泉堂町,무라사키노센도초,0,1,北
25100,旭ヶ丘,旭ヶ丘(東行),,あさひがおか,Asahigaoka,旭丘,旭丘,아사히가오카,0,1,北
25200,旭ヶ丘,旭ヶ丘(西行),,あさひがおか,Asahigaoka,旭丘,旭丘,아사히가오카,0,1,北
26200,佛教大学前,佛教大学前(A),A,ぶっきょうだいがくまえ,Bukkyo Daigaku-mae (Bukkyo University),佛教大学前,佛教大學前,붓쿄다이가쿠마에,0,1,北
26300,佛教大学前,佛教大学前(B),B,ぶっきょうだいがくまえ,Bukkyo Daigaku-mae (Bukkyo University),佛教大学前,佛教大學前,붓쿄다이가쿠마에,0,1,北
26400,佛教大学前,佛教大学前(C),C,ぶっきょうだいがくまえ,Bukkyo Daigaku-mae (Bukkyo University),佛教大学前,佛教大學前,붓쿄다이가쿠마에,0,1,北
27400,北木ノ畑町,北木ノ畑町(北行),,きたこのはたちょう,Kitakonohatacho,北木之畑町,北木之畑町,기타코노하타초,0,1,北
28400,鷹峯上ノ町,鷹峯上ノ町(北行),,たかがみねかみのちょう,Takagamine Kaminocho,鹰峯上之町,鷹峯上之町,다카가미네카미노초,0,1,北
29400,土天井町,土天井町(北行),,どてんじょうちょう,Dotenjocho,土天井町,土天井町,도텐조초,0,1,北
30100,鷹峯源光庵前,鷹峯源光庵前(東行),,たかがみねげんこうあんまえ,Takagamine Genkoan-mae,鹰峯源光庵前,鷹峯源光庵前,다카가미네겐코안마에,0,1,北
31100,釈迦谷口,釈迦谷口(東行),,しゃかだにぐち,Shakadani-guchi,释迦谷口,釋迦谷口,샤카다니구치,0,1,北
32100,玄琢,玄琢(東行),,げんたく,Gentaku,玄琢,玄琢,겐타쿠,0,1,北
33300,玄琢下,玄琢下(南行),,げんたくした,Gentaku-shita,玄琢下,玄琢下,겐타쿠시타,0,1,北
33400,玄琢下,玄琢下(北行),,げんたくした,Gentaku-shita,玄琢下,玄琢下,겐타쿠시타,0,1,北
34110,西賀茂車庫前,西賀茂車庫前(東行(車庫内)),,にしがもしゃこまえ,Nishigamo Shako-mae,西贺茂车库前,西賀茂車庫前,니시가모샤코마에,0,1,北
34120,西賀茂車庫前,西賀茂車庫前(東行),,にしがもしゃこまえ,Nishigamo Shako-mae,西贺茂车库前,西賀茂車庫前,니시가모샤코마에,0,1,北
34210,西賀茂車庫前,西賀茂車庫前(西行(車庫内)),,にしがもしゃこまえ,Nishigamo Shako-mae,西贺茂车库前,西賀茂車庫前,니시가모샤코마에,0,1,北
34220,西賀茂車庫前,西賀茂車庫前(西行),,にしがもしゃこまえ,Nishigamo Shako-mae,西贺茂车库前,西賀茂車庫前,니시가모샤코마에,0,1,北
35300,神光院前,神光院前(南行),,じんこういんまえ,Jinkoin-mae,神光院前,神光院前,진코인마에,0,1,北
35400,神光院前,神光院前(北行),,じんこういんまえ,Jinkoin-mae,神光院前,神光院前,진코인마에,0,1,北
36300,大宮総門口町,大宮総門口町(南行),,おおみやそうもんぐちちょう,Omiya Somonguchicho,大宫综门口町,大宮總門口町,오미야소몬구치초,0,1,北
36400,大宮総門口町,大宮総門口町(北行),,おおみやそうもんぐちちょう,Omiya Somonguchicho,大宫综门口町,大宮總門口町,오미야소몬구치초,0,1,北
37100,大宮田尻町,大宮田尻町(東行),,おおみやたじりちょう,Omiya Tajiricho,大宫田尻町,大宮田尻町,오미야타지리초,0,1,北
37200,大宮田尻町,大宮田尻町(西行),,おおみやたじりちょう,Omiya Tajiricho,大宫田尻町,大宮田尻町,오미야타지리초,0,1,北
38100,上賀茂御薗橋,上賀茂御薗橋(東行),,かみがもみそのばし,Kamigamo Misonobashi,上贺茂御园桥,上賀茂御薗橋,가미가모미소노바시,0,1,北
38200,上賀茂御薗橋,上賀茂御薗橋(西行),,かみがもみそのばし,Kamigamo Misonobashi,上贺茂御园桥,上賀茂御薗橋,가미가모미소노바시,0,1,北
38300,上賀茂御薗橋,上賀茂御薗橋(南行),,かみがもみそのばし,Kamigamo Misonobashi,上贺茂御园桥,上賀茂御薗橋,가미가모미소노바시,0,1,北
38400,上賀茂御薗橋,上賀茂御薗橋(北行),,かみがもみそのばし,Kamigamo Misonobashi,上贺茂御园桥,上賀茂御薗橋,가미가모미소노바시,0,1,北
39300,加茂川中学前,加茂川中学前(南行),,かもがわちゅうがくまえ,Kamogawa Chugaku-mae,加茂川中学前,加茂川中學前,가모가와추가쿠마에,0,1,北
39400,加茂川中学前,加茂川中学前(北行),,かもがわちゅうがくまえ,Kamogawa Chugaku-mae,加茂川中学前,加茂川中學前,가모가와추가쿠마에,0,1,北
40200,下岸町,下岸町(西行),,しもぎしちょう,Shimogishicho,下岸町,下岸町,시모기시초,0,1,北
40300,下岸町,下岸町(南行),,しもぎしちょう,Shimogishicho,下岸町,下岸町,시모기시초,0,1,北
40410,下岸町,下岸町(北行北詰),,しもぎしちょう,Shimogishicho,下岸町,下岸町,시모기시초,0,1,北
40420,下岸町,下岸町(北行南詰),,しもぎしちょう,Shimogishicho,下岸町,下岸町,시모기시초,0,1,北
41100,上賀茂菖蒲園町,上賀茂菖蒲園町(東行),,かみがもしょうぶえんちょう,Kamigamo Shobuencho,上贺茂菖蒲园町,上賀茂菖蒲園町,가미가모쇼부엔초,0,1,北
41200,上賀茂菖蒲園町,上賀茂菖蒲園町(西行),,かみがもしょうぶえんちょう,Kamigamo Shobuencho,上贺茂菖蒲园町,上賀茂菖蒲園町,가미가모쇼부엔초,0,1,北
42300,東高縄町,東高縄町(南行),,ひがしたかなわちょう,Higashitakanawacho,东高绳町,東高繩町,히가시타카나와초,0,1,北
42400,東高縄町,東高縄町(北行),,ひがしたかなわちょう,Higashitakanawacho,东高绳町,東高繩町,히가시타카나와초,0,1,北
43300,下鳥田町,下鳥田町(南行),A,しもとりだちょう,Shimotoridacho,下鸟田町,下鳥田町,시모토리다초,0,1,北
43400,下鳥田町,下鳥田町(北行),,しもとりだちょう,Shimotoridacho,下鸟田町,下鳥田町,시모토리다초,0,1,北
44100,北大路堀川,北大路堀川(D),D,きたおおじほりかわ,Kitaoji Horikawa,北大路堀川,北大路堀川,기타오지호리카와,0,1,北
44200,北大路堀川,北大路堀川(C),C,きたおおじほりかわ,Kitaoji Horikawa,北大路堀川,北大路堀川,기타오지호리카와,0,1,北
44310,北大路堀川,北大路堀川(B),B,きたおおじほりかわ,Kitaoji Horikawa,北大路堀川,北大路堀川,기타오지호리카와,0,1,北
44320,北大路堀川,北大路堀川(A),A,きたおおじほりかわ,Kitaoji Horikawa,北大路堀川,北大路堀川,기타오지호리카와,0,1,北
44400,北大路堀川,北大路堀川(E),E,きたおおじほりかわ,Kitaoji Horikawa,北大路堀川,北大路堀川,기타오지호리카와,0,1,北
45300,下総町,下総町(南行),A,しもふさちょう,Shimofusacho,下综町,下總町,시모후사초,0,1,北
45400,下総町,下総町(北行),,しもふさちょう,Shimofusacho,下综町,下總町,시모후사초,0,1,北
48100,烏丸今出川（地下鉄今出川駅）,烏丸今出川（地下鉄今出川駅）(A),A,からすまいまでがわ（ちかてついまでがわえき）,Karasuma Imadegawa (Subway Imadegawa Station),乌丸今出川（地铁今出川站）,烏丸今出川（地下鐵今出川車站）,가라스마이마데가와（지하철 이마데가와역）,0,1,上
48200,烏丸今出川（地下鉄今出川駅）,烏丸今出川（地下鉄今出川駅）(B),B,からすまいまでがわ（ちかてついまでがわえき）,Karasuma Imadegawa (Subway Imadegawa Station),乌丸今出川（地铁今出川站）,烏丸今出川（地下鐵今出川車站）,가라스마이마데가와（지하철 이마데가와역）,0,1,上
48300,烏丸今出川（地下鉄今出川駅）,烏丸今出川（地下鉄今出川駅）(C),C,からすまいまでがわ（ちかてついまでがわえき）,Karasuma Imadegawa (Subway Imadegawa Station),乌丸今出川（地铁今出川站）,烏丸今出川（地下鐵今出川車站）,가라스마이마데가와（지하철 이마데가와역）,0,1,上
48400,烏丸今出川（地下鉄今出川駅）,烏丸今出川（地下鉄今出川駅）(D),D,からすまいまでがわ（ちかてついまでがわえき）,Karasuma Imadegawa (Subway Imadegawa Station),乌丸今出川（地铁今出川站）,烏丸今出川（地下鐵今出川車站）,가라스마이마데가와（지하철 이마데가와역）,0,1,上
49300,烏丸一条,烏丸一条(南行),,からすまいちじょう,Karasuma Ichijo,乌丸一条,烏丸一条,가라스마이치조,0,1,上
49400,烏丸一条,烏丸一条(北行),,からすまいちじょう,Karasuma Ichijo,乌丸一条,烏丸一条,가라스마이치조,0,1,上
50300,烏丸下長者町,烏丸下長者町(南行),,からすましもちょうじゃまち,Karasuma Shimochojamachi,乌丸下长者町,烏丸下長者町,가라스마시모초자마치,0,1,上
50400,烏丸下長者町,烏丸下長者町(北行),,からすましもちょうじゃまち,Karasuma Shimochojamachi,乌丸下长者町,烏丸下長者町,가라스마시모초자마치,0,1,上
51100,烏丸丸太町（地下鉄丸太町駅）,烏丸丸太町（地下鉄丸太町駅）(A),A,からすままるたまち（ちかてつまるたまちえき）,Karasuma Marutamachi (Subway Marutamachi Station),乌丸丸太町（地铁丸太町站）,烏丸丸太町（地下鐵丸太町車站）,가라스마마루타마치（지하철 마루타마치역）,0,1,中
51200,烏丸丸太町（地下鉄丸太町駅）,烏丸丸太町（地下鉄丸太町駅）(B),B,からすままるたまち（ちかてつまるたまちえき）,Karasuma Marutamachi (Subway Marutamachi Station),乌丸丸太町（地铁丸太町站）,烏丸丸太町（地下鐵丸太町車站）,가라스마마루타마치（지하철 마루타마치역）,0,1,中
51300,烏丸丸太町（地下鉄丸太町駅）,烏丸丸太町（地下鉄丸太町駅）(C),C,からすままるたまち（ちかてつまるたまちえき）,Karasuma Marutamachi (Subway Marutamachi Station),乌丸丸太町（地铁丸太町站）,烏丸丸太町（地下鐵丸太町車站）,가라스마마루타마치（지하철 마루타마치역）,0,1,中
51400,烏丸丸太町（地下鉄丸太町駅）,烏丸丸太町（地下鉄丸太町駅）(D),D,からすままるたまち（ちかてつまるたまちえき）,Karasuma Marutamachi (Subway Marutamachi Station),乌丸丸太町（地铁丸太町站）,烏丸丸太町（地下鐵丸太町車站）,가라스마마루타마치（지하철 마루타마치역）,0,1,中
52300,烏丸二条,烏丸二条(南行),A,からすまにじょう,Karasuma Nijo,乌丸二条,烏丸二条,가라스마니조,0,1,中
52400,烏丸二条,烏丸二条(北行),B,からすまにじょう,Karasuma Nijo,乌丸二条,烏丸二条,가라스마니조,0,1,中
53100,烏丸御池,烏丸御池(A),A,からすまおいけ,Karasuma Oike,乌丸御池,烏丸御池,가라스마오이케,0,1,中
53200,烏丸御池,烏丸御池(C),C,からすまおいけ,Karasuma Oike,乌丸御池,烏丸御池,가라스마오이케,0,1,中
53300,烏丸御池,烏丸御池(B),B,からすまおいけ,Karasuma Oike,乌丸御池,烏丸御池,가라스마오이케,0,1,中
53400,烏丸御池,烏丸御池(D),D,からすまおいけ,Karasuma Oike,乌丸御池,烏丸御池,가라스마오이케,0,1,中
54300,烏丸三条,烏丸三条(南行),A,からすまさんじょう,Karasuma Sanjo,乌丸三条,烏丸三条,가라스마산조,0,1,中
54400,烏丸三条,烏丸三条(北行),B,からすまさんじょう,Karasuma Sanjo,乌丸三条,烏丸三条,가라스마산조,0,1,中
55001,四条烏丸（地下鉄四条駅）,四条烏丸（地下鉄四条駅）(おりば),,しじょうからすま（ちかてつしじょうえき）,Shijo Karasuma (Subway Shijo Station),四条乌丸（地铁四条站）,四条烏丸（地下鐵四条車站）,시조카라스마（지하철 시조역）,0,1,下
55100,四条烏丸（地下鉄四条駅）,四条烏丸（地下鉄四条駅）(F),F,しじょうからすま（ちかてつしじょうえき）,Shijo Karasuma (Subway Shijo Station),四条乌丸（地铁四条站）,四条烏丸（地下鐵四条車站）,시조카라스마（지하철 시조역）,0,1,下
55210,四条烏丸（地下鉄四条駅）,四条烏丸（地下鉄四条駅）(E),E,しじょうからすま（ちかてつしじょうえき）,Shijo Karasuma (Subway Shijo Station),四条乌丸（地铁四条站）,四条烏丸（地下鐵四条車站）,시조카라스마（지하철 시조역）,0,1,下
55220,四条烏丸（地下鉄四条駅）,四条烏丸（地下鉄四条駅）(D),D,しじょうからすま（ちかてつしじょうえき）,Shijo Karasuma (Subway Shijo Station),四条乌丸（地铁四条站）,四条烏丸（地下鐵四条車站）,시조카라스마（지하철 시조역）,0,1,下
55310,四条烏丸（地下鉄四条駅）,四条烏丸（地下鉄四条駅）(B),B,しじょうからすま（ちかてつしじょうえき）,Shijo Karasuma (Subway Shijo Station),四条乌丸（地铁四条站）,四条烏丸（地下鐵四条車站）,시조카라스마（지하철 시조역）,0,1,下
55320,四条烏丸（地下鉄四条駅）,四条烏丸（地下鉄四条駅）(A),A,しじょうからすま（ちかてつしじょうえき）,Shijo Karasuma (Subway Shijo Station),四条乌丸（地铁四条站）,四条烏丸（地下鐵四条車站）,시조카라스마（지하철 시조역）,0,1,中
55410,四条烏丸（地下鉄四条駅）,四条烏丸（地下鉄四条駅）(G),G,しじょうからすま（ちかてつしじょうえき）,Shijo Karasuma (Subway Shijo Station),四条乌丸（地铁四条站）,四条烏丸（地下鐵四条車站）,시조카라스마（지하철 시조역）,0,1,中
55420,四条烏丸（地下鉄四条駅）,四条烏丸（地下鉄四条駅）(C),C,しじょうからすま（ちかてつしじょうえき）,Shijo Karasuma (Subway Shijo Station),四条乌丸（地铁四条站）,四条烏丸（地下鐵四条車站）,시조카라스마（지하철 시조역）,0,1,下
56300,烏丸松原,烏丸松原(南行),,からすままつばら,Karasuma Matsubara,乌丸松原,烏丸松原,가라스마마쓰바라,0,1,下
56400,烏丸松原,烏丸松原(北行),B,からすままつばら,Karasuma Matsubara,乌丸松原,烏丸松原,가라스마마쓰바라,0,1,下
57100,烏丸五条（地下鉄五条駅）,烏丸五条（地下鉄五条駅）(D),D,からすまごじょう（ちかてつごじょうえき）,Karasuma Gojo (Subway Gojo Station),乌丸五条（地铁五条站）,烏丸五条（地下鐵五条車站）,가라스마고조（지하철 고조역）,0,1,下
57200,烏丸五条（地下鉄五条駅）,烏丸五条（地下鉄五条駅）(C),C,からすまごじょう（ちかてつごじょうえき）,Karasuma Gojo (Subway Gojo Station),乌丸五条（地铁五条站）,烏丸五条（地下鐵五条車站）,가라스마고조（지하철 고조역）,0,1,下
57300,烏丸五条（地下鉄五条駅）,烏丸五条（地下鉄五条駅）(A),A,からすまごじょう（ちかてつごじょうえき）,Karasuma Gojo (Subway Gojo Station),乌丸五条（地铁五条站）,烏丸五条（地下鐵五条車站）,가라스마고조（지하철 고조역）,0,1,下
57400,烏丸五条（地下鉄五条駅）,烏丸五条（地下鉄五条駅）(B),B,からすまごじょう（ちかてつごじょうえき）,Karasuma Gojo (Subway Gojo Station),乌丸五条（地铁五条站）,烏丸五条（地下鐵五条車站）,가라스마고조（지하철 고조역）,0,1,下
58300,烏丸六条,烏丸六条(南行),,からすまろくじょう,Karasuma Rokujo,乌丸六条,烏丸六条,가라스마로쿠조,0,1,下
58400,烏丸六条,烏丸六条(北行),,からすまろくじょう,Karasuma Rokujo,乌丸六条,烏丸六条,가라스마로쿠조,0,1,下
59100,烏丸七条,烏丸七条(B),B,からすまななじょう,Karasuma Nanajo,乌丸七条,烏丸七条,가라스마나나조,0,1,下
59200,烏丸七条,烏丸七条(D),D,からすまななじょう,Karasuma Nanajo,乌丸七条,烏丸七条,가라스마나나조,0,1,下
59310,烏丸七条,烏丸七条(C),C,からすまななじょう,Karasuma Nanajo,乌丸七条,烏丸七条,가라스마나나조,0,1,下
59320,烏丸七条,烏丸七条(A),A,からすまななじょう,Karasuma Nanajo,乌丸七条,烏丸七条,가라스마나나조,0,1,下
59400,烏丸七条,烏丸七条(E),E,からすまななじょう,Karasuma Nanajo,乌丸七条,烏丸七条,가라스마나나조,0,1,下
60100,上賀茂石計町,上賀茂石計町(東行),,かみがもいしかずちょう,Kamigamo Ishikazucho,上贺茂石计町,上賀茂石計町,가미가모이시카즈초,0,1,北
60200,上賀茂石計町,上賀茂石計町(西行),,かみがもいしかずちょう,Kamigamo Ishikazucho,上贺茂石计町,上賀茂石計町,가미가모이시카즈초,0,1,北
60300,上賀茂石計町,上賀茂石計町(南行),,かみがもいしかずちょう,Kamigamo Ishikazucho,上贺茂石计町,上賀茂石計町,가미가모이시카즈초,0,1,北
60400,上賀茂石計町,上賀茂石計町(北行),,かみがもいしかずちょう,Kamigamo Ishikazucho,上贺茂石计町,上賀茂石計町,가미가모이시카즈초,0,1,北
61001,京都駅前,京都駅前(おりば(東行)),,きょうとえきまえ,Kyoto Station,京都站前,京都車站前,교토에키마에,0,1,下
61002,京都駅前,京都駅前(おりば(西行)),,きょうとえきまえ,Kyoto Station,京都站前,京都車站前,교토에키마에,0,1,下
61211,京都駅前,京都駅前(A1),A1,きょうとえきまえ,Kyoto Station,京都站前,京都車站前,교토에키마에,0,1,下
61212,京都駅前,京都駅前(A2),A2,きょうとえきまえ,Kyoto Station,京都站前,京都車站前,교토에키마에,0,1,下
61213,京都駅前,京都駅前(A3),A3,きょうとえきまえ,Kyoto Station,京都站前,京都車站前,교토에키마에,0,1,下
61221,京都駅前,京都駅前(B1),B1,きょうとえきまえ,Kyoto Station,京都站前,京都車站前,교토에키마에,0,1,下
61222,京都駅前,京都駅前(B2),B2,きょうとえきまえ,Kyoto Station,京都站前,京都車站前,교토에키마에,0,1,下
61223,京都駅前,京都駅前(B3),B3,きょうとえきまえ,Kyoto Station,京都站前,京都車站前,교토에키마에,0,1,下
61231,京都駅前,京都駅前(C1),C1,きょうとえきまえ,Kyoto Station,京都站前,京都車站前,교토에키마에,0,1,下
61234,京都駅前,京都駅前(C4),C4,きょうとえきまえ,Kyoto Station,京都站前,京都車站前,교토에키마에,0,1,下
61235,京都駅前,京都駅前(C5),C5,きょうとえきまえ,Kyoto Station,京都站前,京都車站前,교토에키마에,0,1,下
61236,京都駅前,京都駅前(C6),C6,きょうとえきまえ,Kyoto Station,京都站前,京都車站前,교토에키마에,0,1,下
61241,京都駅前,京都駅前(D1),D1,きょうとえきまえ,Kyoto Station,京都站前,京都車站前,교토에키마에,0,1,下
61242,京都駅前,京都駅前(D2),D2,きょうとえきまえ,Kyoto Station,京都站前,京都車站前,교토에키마에,0,1,下
61243,京都駅前,京都駅前(D3),D3,きょうとえきまえ,Kyoto Station,京都站前,京都車站前,교토에키마에,0,1,下
62001,京都外大前,京都外大前(おりば(西行)),,きょうとがいだいまえ,Kyoto Gaidai-mae (Kyoto University of Foreign Studies),京都外大前（京都外语大学）,京都外大前（京都外語大學）,교토가이다이마에（교토외국어 대학）,0,1,右
62002,京都外大前,京都外大前(おりば(東行)),,きょうとがいだいまえ,Kyoto Gaidai-mae (Kyoto University of Foreign Studies),京都外大前（京都外语大学）,京都外大前（京都外語大學）,교토가이다이마에（교토외국어 대학）,0,1,右
62110,京都外大前,京都外大前(東行東側),B,きょうとがいだいまえ,Kyoto Gaidai-mae (Kyoto University of Foreign Studies),京都外大前（京都外语大学）,京都外大前（京都外語大學）,교토가이다이마에（교토외국어 대학）,0,1,右
62120,京都外大前,京都外大前(東行西側),A,きょうとがいだいまえ,Kyoto Gaidai-mae (Kyoto University of Foreign Studies),京都外大前（京都外语大学）,京都外大前（京都外語大學）,교토가이다이마에（교토외국어 대학）,0,1,右
62210,京都外大前,京都外大前(西行西詰),,きょうとがいだいまえ,Kyoto Gaidai-mae (Kyoto University of Foreign Studies),京都外大前（京都外语大学）,京都外大前（京都外語大學）,교토가이다이마에（교토외국어 대학）,0,1,右
62220,京都外大前,京都外大前(西行東詰),C,きょうとがいだいまえ,Kyoto Gaidai-mae (Kyoto University of Foreign Studies),京都外大前（京都外语大学）,京都外大前（京都外語大學）,교토가이다이마에（교토외국어 대학）,0,1,右
62400,京都外大前,京都外大前(北行),,きょうとがいだいまえ,Kyoto Gaidai-mae (Kyoto University of Foreign Studies),京都外大前（京都外语大学）,京都外大前（京都外語大學）,교토가이다이마에（교토외국어 대학）,0,1,右
63100,四条中学前,四条中学前(東行),,しじょうちゅうがくまえ,Shijo Chugaku-mae,四条中学前,四条中學前,시조추가쿠마에,0,1,右
63200,四条中学前,四条中学前(西行),B,しじょうちゅうがくまえ,Shijo Chugaku-mae,四条中学前,四条中學前,시조추가쿠마에,0,1,右
64100,西院巽町,西院巽町(東行),,さいいんたつみちょう,Saiin Tatsumicho,西院巽町,西院巽町,사이인타쓰미초,0,1,右
64200,西院巽町,西院巽町(西行),,さいいんたつみちょう,Saiin Tatsumicho,西院巽町,西院巽町,사이인타쓰미초,0,1,右
65100,西大路四条（阪急・嵐電西院駅）,西大路四条（阪急・嵐電西院駅）(B),B,にしおおじしじょう（はんきゅうさいいんえき/らんでんさいえき）,Nishioji Shijo (Hankyu Saiin Station / Randen Sai Station),西大路四条（阪急･岚电西院站）,西大路四条（阪急･嵐電西院車站）,"니시오지시조（한큐 사이인역,란덴 사이역）",0,1,右
65210,西大路四条（阪急・嵐電西院駅）,西大路四条（阪急・嵐電西院駅）(D),D,にしおおじしじょう（はんきゅうさいいんえき/らんでんさいえき）,Nishioji Shijo (Hankyu Saiin Station / Randen Sai Station),西大路四条（阪急･岚电西院站）,西大路四条（阪急･嵐電西院車站）,"니시오지시조（한큐 사이인역,란덴 사이역）",0,1,右
65220,西大路四条（阪急・嵐電西院駅）,西大路四条（阪急・嵐電西院駅）(C),C,にしおおじしじょう（はんきゅうさいいんえき/らんでんさいえき）,Nishioji Shijo (Hankyu Saiin Station / Randen Sai Station),西大路四条（阪急･岚电西院站）,西大路四条（阪急･嵐電西院車站）,"니시오지시조（한큐 사이인역,란덴 사이역）",0,1,右
65300,西大路四条（阪急・嵐電西院駅）,西大路四条（阪急・嵐電西院駅）(A),A,にしおおじしじょう（はんきゅうさいいんえき/らんでんさいえき）,Nishioji Shijo (Hankyu Saiin Station / Randen Sai Station),西大路四条（阪急･岚电西院站）,西大路四条（阪急･嵐電西院車站）,"니시오지시조（한큐 사이인역,란덴 사이역）",0,1,右
65410,西大路四条（阪急・嵐電西院駅）,西大路四条（阪急・嵐電西院駅）(F),F,にしおおじしじょう（はんきゅうさいいんえき/らんでんさいえき）,Nishioji Shijo (Hankyu Saiin Station / Randen Sai Station),西大路四条（阪急･岚电西院站）,西大路四条（阪急･嵐電西院車站）,"니시오지시조（한큐 사이인역,란덴 사이역）",0,1,右
65420,西大路四条（阪急・嵐電西院駅）,西大路四条（阪急・嵐電西院駅）(E),E,にしおおじしじょう（はんきゅうさいいんえき/らんでんさいえき）,Nishioji Shijo (Hankyu Saiin Station / Randen Sai Station),西大路四条（阪急･岚电西院站）,西大路四条（阪急･嵐電西院車站）,"니시오지시조（한큐 사이인역,란덴 사이역）",0,1,右
66100,四条御前通,四条御前通(東行),,しじょうおんまえどおり,Shijo Onmaedori,四条御前通,四条御前通,시조온마에도오리,0,1,中
66200,四条御前通,四条御前通(西行),,しじょうおんまえどおり,Shijo Onmaedori,四条御前通,四条御前通,시조온마에도오리,0,1,中
67100,四条中新道,四条中新道(東行),B,しじょうなかしんみち,Shijo Nakashinmichi,四条中新道,四条中新道,시조나카신미치,0,1,中
67200,四条中新道,四条中新道(西行),,しじょうなかしんみち,Shijo Nakashinmichi,四条中新道,四条中新道,시조나카신미치,0,1,中
68100,壬生寺道,壬生寺道(東行),,みぶでらみち,Mibudera-michi (Mibu-dera Temple),壬生寺道,壬生寺道,미부데라미치,0,1,中
68200,壬生寺道,壬生寺道(西行),B,みぶでらみち,Mibudera-michi (Mibu-dera Temple),壬生寺道,壬生寺道,미부데라미치,0,1,中
69110,四条大宮,四条大宮(1),1,しじょうおおみや,Shijo Omiya,四条大宫,四条大宮,시조오미야,0,1,下
69120,四条大宮,四条大宮(5),5,しじょうおおみや,Shijo Omiya,四条大宫,四条大宮,시조오미야,0,1,中
69210,四条大宮,四条大宮(4),4,しじょうおおみや,Shijo Omiya,四条大宫,四条大宮,시조오미야,0,1,下
69220,四条大宮,四条大宮(2),2,しじょうおおみや,Shijo Omiya,四条大宫,四条大宮,시조오미야,0,1,下
69310,四条大宮,四条大宮(3),3,しじょうおおみや,Shijo Omiya,四条大宫,四条大宮,시조오미야,0,1,下
69320,四条大宮,四条大宮(9),9,しじょうおおみや,Shijo Omiya,四条大宫,四条大宮,시조오미야,0,1,中
69410,四条大宮,四条大宮(8),8,しじょうおおみや,Shijo Omiya,四条大宫,四条大宮,시조오미야,0,1,中
69420,四条大宮,四条大宮(7),7,しじょうおおみや,Shijo Omiya,四条大宫,四条大宮,시조오미야,0,1,中
69430,四条大宮,四条大宮(6),6,しじょうおおみや,Shijo Omiya,四条大宫,四条大宮,시조오미야,0,1,中
70100,四条堀川,四条堀川(A),A,しじょうほりかわ,Shijo Horikawa,四条堀川,四条堀川,시조호리카와,0,1,下
70200,四条堀川,四条堀川(B),B,しじょうほりかわ,Shijo Horikawa,四条堀川,四条堀川,시조호리카와,0,1,下
70300,四条堀川,四条堀川(C),C,しじょうほりかわ,Shijo Horikawa,四条堀川,四条堀川,시조호리카와,0,1,下
70410,四条堀川,四条堀川(E),E,しじょうほりかわ,Shijo Horikawa,四条堀川,四条堀川,시조호리카와,0,1,中
70420,四条堀川,四条堀川(D),D,しじょうほりかわ,Shijo Horikawa,四条堀川,四条堀川,시조호리카와,0,1,下
71100,四条西洞院,四条西洞院(A),A,しじょうにしのとういん,Shijo Nishinotoin,四条西洞院,四条西洞院,시조니시노토인,0,1,下
71200,四条西洞院,四条西洞院(B),B,しじょうにしのとういん,Shijo Nishinotoin,四条西洞院,四条西洞院,시조니시노토인,0,1,下
71400,四条西洞院,四条西洞院(C),C,しじょうにしのとういん,Shijo Nishinotoin,四条西洞院,四条西洞院,시조니시노토인,0,1,下
72100,四条高倉,四条高倉(東行),A,しじょうたかくら,Shijo Takakura,四条高仓,四条高倉,시조타카쿠라,0,1,下
72200,四条高倉,四条高倉(西行),B,しじょうたかくら,Shijo Takakura,四条高仓,四条高倉,시조타카쿠라,0,1,下
73100,四条河原町,四条河原町(E)(東行),E,しじょうかわらまち,Shijo Kawaramachi,四条河原町,四条河原町,시조카와라마치,0,1,下
73200,四条河原町,四条河原町(D)(西行),D,しじょうかわらまち,Shijo Kawaramachi,四条河原町,四条河原町,시조카와라마치,0,1,下
73300,四条河原町,四条河原町(南行南詰(南側)),,しじょうかわらまち,Shijo Kawaramachi,四条河原町,四条河原町,시조카와라마치,0,1,下
73310,四条河原町,四条河原町(B)(南行南詰),B,しじょうかわらまち,Shijo Kawaramachi,四条河原町,四条河原町,시조카와라마치,0,1,下
73320,四条河原町,四条河原町(A)(南行北詰),A,しじょうかわらまち,Shijo Kawaramachi,四条河原町,四条河原町,시조카와라마치,0,1,中
73410,四条河原町,四条河原町(H)(北行北詰北側),H,しじょうかわらまち,Shijo Kawaramachi,四条河原町,四条河原町,시조카와라마치,0,1,中
73420,四条河原町,四条河原町(G)(北行北詰中央),G,しじょうかわらまち,Shijo Kawaramachi,四条河原町,四条河原町,시조카와라마치,0,1,中
73430,四条河原町,四条河原町(F)(北行北詰南側),F,しじょうかわらまち,Shijo Kawaramachi,四条河原町,四条河原町,시조카와라마치,0,1,中
73440,四条河原町,四条河原町(C)(北行南詰),C,しじょうかわらまち,Shijo Kawaramachi,四条河原町,四条河原町,시조카와라마치,0,1,中
75100,百万遍,百万遍(D),D,ひゃくまんべん,Hyakumanben,百万遍,百萬遍,햐쿠만벤,0,1,左
75200,百万遍,百万遍(C),C,ひゃくまんべん,Hyakumanben,百万遍,百萬遍,햐쿠만벤,0,1,左
75300,百万遍,百万遍(A),A,ひゃくまんべん,Hyakumanben,百万遍,百萬遍,햐쿠만벤,0,1,左
75400,百万遍,百万遍(B),B,ひゃくまんべん,Hyakumanben,百万遍,百萬遍,햐쿠만벤,0,1,左
77100,田中樋ノ口町,田中樋ノ口町(東行),,たなかひのくちちょう,Tanaka Hinokuchicho,田中樋之口町,田中樋之口町,다나카히노쿠치초,0,1,左
77200,田中樋ノ口町,田中樋ノ口町(西行),,たなかひのくちちょう,Tanaka Hinokuchicho,田中樋之口町,田中樋之口町,다나카히노쿠치초,0,1,左
78100,北白川小倉町,北白川小倉町(東行),,きたしらかわおぐらちょう,Kitashirakawa Oguracho,北白川小仓町,北白川小倉町,기타시라카와오구라초,0,1,左
78200,北白川小倉町,北白川小倉町(西行),,きたしらかわおぐらちょう,Kitashirakawa Oguracho,北白川小仓町,北白川小倉町,기타시라카와오구라초,0,1,左
79100,北白川別当町,北白川別当町(東行),,きたしらかわべっとうちょう,Kitashirakawa Bettocho,北白川别当町,北白川別當町,기타시라카와벳토초,0,1,左
79200,北白川別当町,北白川別当町(西行),,きたしらかわべっとうちょう,Kitashirakawa Bettocho,北白川别当町,北白川別當町,기타시라카와벳토초,0,1,左
79300,北白川別当町,北白川別当町(南行),,きたしらかわべっとうちょう,Kitashirakawa Bettocho,北白川别当町,北白川別當町,기타시라카와벳토초,0,1,左
79400,北白川別当町,北白川別当町(北行),D,きたしらかわべっとうちょう,Kitashirakawa Bettocho,北白川别当町,北白川別當町,기타시라카와벳토초,0,1,左
80100,上池田町,上池田町(東行),,かみいけだちょう,Kamiikedacho,上池田町,上池田町,가미이케다초,0,1,左
80200,上池田町,上池田町(西行),,かみいけだちょう,Kamiikedacho,上池田町,上池田町,가미이케다초,0,1,左
81001,北白川仕伏町,北白川仕伏町(おりば),,きたしらかわしぶせちょう,Kitashirakawa Shibusecho,北白川仕伏町,北白川仕伏町,기타시라카와시부세초,0,1,左
81200,北白川仕伏町,北白川仕伏町(西行),,きたしらかわしぶせちょう,Kitashirakawa Shibusecho,北白川仕伏町,北白川仕伏町,기타시라카와시부세초,0,1,左
82100,下京区総合庁舎前,下京区総合庁舎前(A),A,しもぎょうくそうごうちょうしゃまえ,Shimogyoku Sogochosha-mae (Shimogyo Ward Office),下京区综合厅舍前（下京区政府）,下京區總合廳舍前（下京區公所）,시모교쿠소고초샤마에（시모교 구청）,0,1,下
82210,下京区総合庁舎前,下京区総合庁舎前(C),C,しもぎょうくそうごうちょうしゃまえ,Shimogyoku Sogochosha-mae (Shimogyo Ward Office),下京区综合厅舍前（下京区政府）,下京區總合廳舍前（下京區公所）,시모교쿠소고초샤마에（시모교 구청）,0,1,下
82220,下京区総合庁舎前,下京区総合庁舎前(B),B,しもぎょうくそうごうちょうしゃまえ,Shimogyoku Sogochosha-mae (Shimogyo Ward Office),下京区综合厅舍前（下京区政府）,下京區總合廳舍前（下京區公所）,시모교쿠소고초샤마에（시모교 구청）,0,1,下
83300,洛北高校正門前,洛北高校正門前(南行),,らくほくこうこうせいもんまえ,Rakuhokukoko Seimon-mae,洛北高中正门前,洛北高校正門前,라쿠호쿠코코세이몬마에,0,1,左
83400,洛北高校正門前,洛北高校正門前(北行),,らくほくこうこうせいもんまえ,Rakuhokukoko Seimon-mae,洛北高中正门前,洛北高校正門前,라쿠호쿠코코세이몬마에,0,1,左
84300,北園町,北園町(南行),,きたぞのちょう,Kitazonocho,北园町,北園町,기타조노초,0,1,左
84400,北園町,北園町(北行),,きたぞのちょう,Kitazonocho,北园町,北園町,기타조노초,0,1,左
85300,神殿町,神殿町(南行),A,こうどのちょう,Kodonocho,神殿町,神殿町,고도노초,0,1,左
85400,神殿町,神殿町(北行),,こうどのちょう,Kodonocho,神殿町,神殿町,고도노초,0,1,左
86100,野々神町,野々神町(A),A,ののがみちょう,Nonogamicho,野野神町,野野神町,노노가미초,0,1,左
86200,野々神町,野々神町(B),B,ののがみちょう,Nonogamicho,野野神町,野野神町,노노가미초,0,1,左
86300,野々神町,野々神町(C),C,ののがみちょう,Nonogamicho,野野神町,野野神町,노노가미초,0,1,左
86400,野々神町,野々神町(D),D,ののがみちょう,Nonogamicho,野野神町,野野神町,노노가미초,0,1,左
87100,北山駅前,北山駅前(A),A,きたやまえきまえ,Kitayama Station,北山站前,北山車站前,기타야마에키마에,0,1,左
87200,北山駅前,北山駅前(B),B,きたやまえきまえ,Kitayama Station,北山站前,北山車站前,기타야마에키마에,0,1,左
87400,北山駅前,北山駅前(北行),,きたやまえきまえ,Kitayama Station,北山站前,北山車站前,기타야마에키마에,0,1,北
88300,上賀茂榊田町,上賀茂榊田町(南行),,かみがもさかきだちょう,Kamigamo Sakakidacho,上贺茂榊田町,上賀茂榊田町,가미가모사카키다초,0,1,北
88400,上賀茂榊田町,上賀茂榊田町(北行),,かみがもさかきだちょう,Kamigamo Sakakidacho,上贺茂榊田町,上賀茂榊田町,가미가모사카키다초,0,1,北
90300,深泥池,深泥池(南行),A,みどろがいけ,Midorogaike,深泥池,深泥池,미도로가이케,0,1,北
90400,深泥池,深泥池(北行),,みどろがいけ,Midorogaike,深泥池,深泥池,미도로가이케,0,1,北
91100,国際会館駅前,国際会館駅前(B),B,こくさいかいかんえきまえ,Kokusaikaikan Station (Kyoto International Conference Center),国际会馆站前,國際會館車站前,고쿠사이카이칸에키마에,0,1,左
91200,国際会館駅前,国際会館駅前(A),A,こくさいかいかんえきまえ,Kokusaikaikan Station (Kyoto International Conference Center),国际会馆站前,國際會館車站前,고쿠사이카이칸에키마에,0,1,左
92100,岩倉大鷺町,岩倉大鷺町(東行),,いわくらおおさぎちょう,Iwakura Osagicho,岩仓大鹭町,岩倉大鷺町,이와쿠라오사기초,0,1,左
92200,岩倉大鷺町,岩倉大鷺町(西行),,いわくらおおさぎちょう,Iwakura Osagicho,岩仓大鹭町,岩倉大鷺町,이와쿠라오사기초,0,1,左
93100,上高野,上高野(東行),,かみたかの,Kamitakano,上高野,上高野,가미타카노,0,1,左
93200,上高野,上高野(西行),,かみたかの,Kamitakano,上高野,上高野,가미타카노,0,1,左
94300,花園橋,花園橋(南行),,はなぞのばし,Hanazonobashi,花园桥,花園橋,하나조노바시,0,1,左
94400,花園橋,花園橋(北行),,はなぞのばし,Hanazonobashi,花园桥,花園橋,하나조노바시,0,1,左
95300,宝ヶ池,宝ヶ池(南行),,たからがいけ,Takaragaike,宝池,寶池,다카라가이케,0,1,左
95400,宝ヶ池,宝ヶ池(北行),,たからがいけ,Takaragaike,宝池,寶池,다카라가이케,0,1,左
96300,修学院離宮道,修学院離宮道(南行),A,しゅうがくいんりきゅうみち,Shugakuinrikyu-michi (Shugakuin Imperial Villa),修学院离宫道,修學院離宮道,슈가쿠인리큐미치,0,1,左
96400,修学院離宮道,修学院離宮道(北行),,しゅうがくいんりきゅうみち,Shugakuinrikyu-michi (Shugakuin Imperial Villa),修学院离宫道,修學院離宮道,슈가쿠인리큐미치,0,1,左
97300,修学院道,修学院道(南行),A,しゅうがくいんみち,Shugakuin-michi,修学院道,修學院道,슈가쿠인미치,0,1,左
97400,修学院道,修学院道(北行),B,しゅうがくいんみち,Shugakuin-michi,修学院道,修學院道,슈가쿠인미치,0,1,左
98300,一乗寺清水町,一乗寺清水町(南行),,いちじょうじしみずちょう,Ichijoji Shimizucho,一乗寺清水町,一乗寺清水町,이치조지시미즈초,0,1,左
98400,一乗寺清水町,一乗寺清水町(北行),,いちじょうじしみずちょう,Ichijoji Shimizucho,一乗寺清水町,一乗寺清水町,이치조지시미즈초,0,1,左
99300,一乗寺下り松町,一乗寺下り松町(南行),A,いちじょうじさがりまつちょう,Ichijoji Sagarimatsucho,一乗寺下松町,一乗寺下松町,이치조지사가리마쓰초,0,1,左
99400,一乗寺下り松町,一乗寺下り松町(北行),,いちじょうじさがりまつちょう,Ichijoji Sagarimatsucho,一乗寺下松町,一乗寺下松町,이치조지사가리마쓰초,0,1,左
100300,一乗寺木ノ本町,一乗寺木ノ本町(南行),A,いちじょうじきのもとちょう,Ichijoji Kinomotocho,一乗寺木之本町,一乗寺木之本町,이치조지키노모토초,0,1,左
100400,一乗寺木ノ本町,一乗寺木ノ本町(北行),,いちじょうじきのもとちょう,Ichijoji Kinomotocho,一乗寺木之本町,一乗寺木之本町,이치조지키노모토초,0,1,左
101310,上終町・瓜生山学園 京都芸術大学前,上終町・瓜生山学園 京都芸術大学前(B),B,かみはてちょう・うりゅうやまがくえん きょうとげいじゅつだいがくまえ,Kamihatecho / Uryuyamagakuen Kyoto Geijutsudaigaku-mae(Kyoto University of the Arts),上终町・瓜生山学园 京都艺术大学前,上終町・瓜生山學園 京都藝術大學前,카미하테초・우류우야마가쿠엔 교토게이주쓰다이가쿠마에 （교토예술대학）,0,1,左
101320,上終町・瓜生山学園 京都芸術大学前,上終町・瓜生山学園 京都芸術大学前(A),A,かみはてちょう・うりゅうやまがくえん きょうとげいじゅつだいがくまえ,Kamihatecho / Uryuyamagakuen Kyoto Geijutsudaigaku-mae(Kyoto University of the Arts),上终町・瓜生山学园 京都艺术大学前,上終町・瓜生山學園 京都藝術大學前,카미하테초・우류우야마가쿠엔 교토게이주쓰다이가쿠마에 （교토예술대학）,0,1,左
101400,上終町・瓜生山学園 京都芸術大学前,上終町・瓜生山学園 京都芸術大学前(C),C,かみはてちょう・うりゅうやまがくえん きょうとげいじゅつだいがくまえ,Kamihatecho / Uryuyamagakuen Kyoto Geijutsudaigaku-mae(Kyoto University of the Arts),上终町・瓜生山学园 京都艺术大学前,上終町・瓜生山學園 京都藝術大學前,카미하테초・우류우야마가쿠엔 교토게이주쓰다이가쿠마에 （교토예술대학）,0,1,左
102300,北白川校前,北白川校前(南行),,きたしらかわこうまえ,Kitashirakawako-mae,北白川校前,北白川校前,기타시라카와코마에,0,1,左
102400,北白川校前,北白川校前(北行),,きたしらかわこうまえ,Kitashirakawako-mae,北白川校前,北白川校前,기타시라카와코마에,0,1,左
103100,銀閣寺道,銀閣寺道(D),D,ぎんかくじみち,Ginkakuji-michi (Ginkakuji Temple),银阁寺道,銀閣寺道,긴카쿠지미치（은각사）,0,1,左
103200,銀閣寺道,銀閣寺道(C),C,ぎんかくじみち,Ginkakuji-michi (Ginkakuji Temple),银阁寺道,銀閣寺道,긴카쿠지미치（은각사）,0,1,左
103300,銀閣寺道,銀閣寺道(A),A,ぎんかくじみち,Ginkakuji-michi (Ginkakuji Temple),银阁寺道,銀閣寺道,긴카쿠지미치（은각사）,0,1,左
103400,銀閣寺道,銀閣寺道(B),B,ぎんかくじみち,Ginkakuji-michi (Ginkakuji Temple),银阁寺道,銀閣寺道,긴카쿠지미치（은각사）,0,1,左
104300,浄土寺,浄土寺(南行),,じょうどじ,Jodoji,净土寺,淨土寺,조도지,0,1,左
104400,浄土寺,浄土寺(北行),,じょうどじ,Jodoji,净土寺,淨土寺,조도지,0,1,左
105001,錦林車庫前,錦林車庫前(おりば(北行)),,きんりんしゃこまえ,Kinrin Shako-mae,锦林车库前,錦林車庫前,긴린샤코마에,0,1,左
105002,錦林車庫前,錦林車庫前(おりば(南行)),,きんりんしゃこまえ,Kinrin Shako-mae,锦林车库前,錦林車庫前,긴린샤코마에,0,1,左
105300,錦林車庫前,錦林車庫前(南行),A,きんりんしゃこまえ,Kinrin Shako-mae,锦林车库前,錦林車庫前,긴린샤코마에,0,1,左
105400,錦林車庫前,錦林車庫前(北行),B,きんりんしゃこまえ,Kinrin Shako-mae,锦林车库前,錦林車庫前,긴린샤코마에,0,1,左
106300,真如堂前,真如堂前(南行),,しんにょどうまえ,Shinnyodo-mae (Shinnyodo Temple),真如堂前,真如堂前,신뇨도마에,0,1,左
106400,真如堂前,真如堂前(北行),,しんにょどうまえ,Shinnyodo-mae (Shinnyodo Temple),真如堂前,真如堂前,신뇨도마에,0,1,左
107100,東天王町,東天王町(B),B,ひがしてんのうちょう,Higashitennocho,东天王町,東天王町,히가시텐노초,0,1,左
107200,東天王町,東天王町(C),C,ひがしてんのうちょう,Higashitennocho,东天王町,東天王町,히가시텐노초,0,1,左
107300,東天王町,東天王町(A),A,ひがしてんのうちょう,Higashitennocho,东天王町,東天王町,히가시텐노초,0,1,左
107400,東天王町,東天王町(D),D,ひがしてんのうちょう,Higashitennocho,东天王町,東天王町,히가시텐노초,0,1,左
108300,南禅寺・永観堂道,南禅寺・永観堂道(南行),A,なんぜんじ・えいかんどうみち,Nanzenji Eikando-michi (Nanzenji Temple / Eikando Temple),南禅寺・永观堂道,南禪寺・永觀堂道,난젠지・에이칸도미치,0,1,左
108400,南禅寺・永観堂道,南禅寺・永観堂道(北行),B,なんぜんじ・えいかんどうみち,Nanzenji Eikando-michi (Nanzenji Temple / Eikando Temple),南禅寺・永观堂道,南禪寺・永觀堂道,난젠지・에이칸도미치,0,1,左
109100,岡崎法勝寺町,岡崎法勝寺町(東行),A,おかざきほっしょうじちょう,Okazaki Hosshojicho,冈崎法胜寺町,岡崎法勝寺町,오카자키홋쇼지초,0,1,左
109200,岡崎法勝寺町,岡崎法勝寺町(西行),,おかざきほっしょうじちょう,Okazaki Hosshojicho,冈崎法胜寺町,岡崎法勝寺町,오카자키홋쇼지초,0,1,左
110100,岡崎公園 動物園前,岡崎公園 動物園前(E),E,おかざきこうえんどうぶつえんまえ,Okazaki Koen / Dobutsuen-mae (Zoo),冈崎公园 动物园前,岡崎公園 動物園前,오카자키코엔 도부쓰엔마에,0,1,左
110200,岡崎公園 動物園前,岡崎公園 動物園前(F),F,おかざきこうえんどうぶつえんまえ,Okazaki Koen / Dobutsuen-mae (Zoo),冈崎公园 动物园前,岡崎公園 動物園前,오카자키코엔 도부쓰엔마에,0,1,左
111300,岡崎公園 美術館・平安神宮前,岡崎公園 美術館・平安神宮前(A),A,おかざきこうえんびじゅつかん・へいあんじんぐうまえ,Okazaki Koen Bijutsukan / Heian Jingu-mae,冈崎公园 美术馆・平安神宫前,岡崎公園 美術館・平安神宮前,오카자키코엔 비주쓰칸･헤이안진구마에,0,1,左
111400,岡崎公園 美術館・平安神宮前,岡崎公園 美術館・平安神宮前(B),B,おかざきこうえんびじゅつかん・へいあんじんぐうまえ,Okazaki Koen Bijutsukan / Heian Jingu-mae,冈崎公园 美术馆・平安神宫前,岡崎公園 美術館・平安神宮前,오카자키코엔 비주쓰칸･헤이안진구마에,0,1,左
112200,神宮道,神宮道(西行),,じんぐうみち,Jingu-michi,神宫道,神宮道,진구미치,0,1,左
112400,神宮道,神宮道(北行),,じんぐうみち,Jingu-michi,神宫道,神宮道,진구미치,0,1,左
113100,東山三条（地下鉄東山駅）,東山三条（地下鉄東山駅）(A),A,ひがしやまさんじょう（ちかてつひがしやまえき）,Higashiyama Sanjo (Subway Higashiyama Station),东山三条（地铁东山站）,東山三条（地下鐵東山車站）,히가시야마산조（지하철 히가시야마역）,0,1,東
113210,東山三条（地下鉄東山駅）,東山三条（地下鉄東山駅）(D),D,ひがしやまさんじょう（ちかてつひがしやまえき）,Higashiyama Sanjo (Subway Higashiyama Station),东山三条（地铁东山站）,東山三条（地下鐵東山車站）,히가시야마산조（지하철 히가시야마역）,0,1,東
113220,東山三条（地下鉄東山駅）,東山三条（地下鉄東山駅）(B),B,ひがしやまさんじょう（ちかてつひがしやまえき）,Higashiyama Sanjo (Subway Higashiyama Station),东山三条（地铁东山站）,東山三条（地下鐵東山車站）,히가시야마산조（지하철 히가시야마역）,0,1,東
113300,東山三条（地下鉄東山駅）,東山三条（地下鉄東山駅）(C),C,ひがしやまさんじょう（ちかてつひがしやまえき）,Higashiyama Sanjo (Subway Higashiyama Station),东山三条（地铁东山站）,東山三条（地下鐵東山車站）,히가시야마산조（지하철 히가시야마역）,0,1,東
113400,東山三条（地下鉄東山駅）,東山三条（地下鉄東山駅）(E),E,ひがしやまさんじょう（ちかてつひがしやまえき）,Higashiyama Sanjo (Subway Higashiyama Station),东山三条（地铁东山站）,東山三条（地下鐵東山車站）,히가시야마산조（지하철 히가시야마역）,0,1,左
114100,三条京阪前,三条京阪前(D),D,さんじょうけいはんまえ,Sanjo Keihan-mae,三条京阪前,三条京阪前,산조케이한마에,0,1,東
114210,三条京阪前,三条京阪前(C3),C3,さんじょうけいはんまえ,Sanjo Keihan-mae,三条京阪前,三条京阪前,산조케이한마에,0,1,東
114220,三条京阪前,三条京阪前(C2),C2,さんじょうけいはんまえ,Sanjo Keihan-mae,三条京阪前,三条京阪前,산조케이한마에,0,1,東
114400,三条京阪前,三条京阪前(E),E,さんじょうけいはんまえ,Sanjo Keihan-mae,三条京阪前,三条京阪前,산조케이한마에,0,1,左
114410,三条京阪前,三条京阪前(A1),A1,さんじょうけいはんまえ,Sanjo Keihan-mae,三条京阪前,三条京阪前,산조케이한마에,0,1,東
114420,三条京阪前,三条京阪前(A2),A2,さんじょうけいはんまえ,Sanjo Keihan-mae,三条京阪前,三条京阪前,산조케이한마에,0,1,東
114430,三条京阪前,三条京阪前(A3),A3,さんじょうけいはんまえ,Sanjo Keihan-mae,三条京阪前,三条京阪前,산조케이한마에,0,1,東
115120,京都駅八条口,京都駅八条口(F2),F2,きょうとえきはちじょうぐち,Kyoto Station (Hachijoguchi),京都站八条口,京都車站八条口,교토에키하치조구치,0,1,南
115130,京都駅八条口,京都駅八条口(F1),F1,きょうとえきはちじょうぐち,Kyoto Station (Hachijoguchi),京都站八条口,京都車站八条口,교토에키하치조구치,0,1,南
115200,京都駅八条口,京都駅八条口(G1),G1,きょうとえきはちじょうぐち,Kyoto Station (Hachijoguchi),京都站八条口,京都車站八条口,교토에키하치조구치,0,1,南
116200,東寺道,東寺道(西行),,とうじみち,Toji-michi,东寺道,東寺道,도지미치,0,1,南
116300,東寺道,東寺道(南行),,とうじみち,Toji-michi,东寺道,東寺道,도지미치,0,1,南
116400,東寺道,東寺道(北行),,とうじみち,Toji-michi,东寺道,東寺道,도지미치,0,1,南
117001,九条車庫前,九条車庫前(おりば(東行東側)),,くじょうしゃこまえ,Kujo Shako-mae,九条车库前,九条車庫前,구조샤코마에,0,1,南
117002,九条車庫前,九条車庫前(おりば(西行)),,くじょうしゃこまえ,Kujo Shako-mae,九条车库前,九条車庫前,구조샤코마에,0,1,南
117003,九条車庫前,九条車庫前(おりば(東行西側)),,くじょうしゃこまえ,Kujo Shako-mae,九条车库前,九条車庫前,구조샤코마에,0,1,南
117100,九条車庫前,九条車庫前(東行),,くじょうしゃこまえ,Kujo Shako-mae,九条车库前,九条車庫前,구조샤코마에,0,1,南
117210,九条車庫前,九条車庫前(1),1,くじょうしゃこまえ,Kujo Shako-mae,九条车库前,九条車庫前,구조샤코마에,0,1,南
117220,九条車庫前,九条車庫前(2),2,くじょうしゃこまえ,Kujo Shako-mae,九条车库前,九条車庫前,구조샤코마에,0,1,南
118110,地下鉄九条駅前（大石橋）,地下鉄九条駅前（大石橋）(A),A,ちかてつくじょうえきまえ（おおいしばし）,Subway Kujo Station (Oishibashi),地铁九条站前（大石桥）,地下鐵九条車站前（大石橋）,지카테쓰구조에키마에（오이시바시）,0,1,南
118120,地下鉄九条駅前（大石橋）,地下鉄九条駅前（大石橋）(G),G,ちかてつくじょうえきまえ（おおいしばし）,Subway Kujo Station (Oishibashi),地铁九条站前（大石桥）,地下鐵九条車站前（大石橋）,지카테쓰구조에키마에（오이시바시）,0,1,南
118200,地下鉄九条駅前（大石橋）,地下鉄九条駅前（大石橋）(D),D,ちかてつくじょうえきまえ（おおいしばし）,Subway Kujo Station (Oishibashi),地铁九条站前（大石桥）,地下鐵九条車站前（大石橋）,지카테쓰구조에키마에（오이시바시）,0,1,南
118300,地下鉄九条駅前（大石橋）,地下鉄九条駅前（大石橋）(B),B,ちかてつくじょうえきまえ（おおいしばし）,Subway Kujo Station (Oishibashi),地铁九条站前（大石桥）,地下鐵九条車站前（大石橋）,지카테쓰구조에키마에（오이시바시）,0,1,南
118410,地下鉄九条駅前（大石橋）,地下鉄九条駅前（大石橋）(H),H,ちかてつくじょうえきまえ（おおいしばし）,Subway Kujo Station (Oishibashi),地铁九条站前（大石桥）,地下鐵九条車站前（大石橋）,지카테쓰구조에키마에（오이시바시）,0,1,南
118420,地下鉄九条駅前（大石橋）,地下鉄九条駅前（大石橋）(C),C,ちかてつくじょうえきまえ（おおいしばし）,Subway Kujo Station (Oishibashi),地铁九条站前（大石桥）,地下鐵九条車站前（大石橋）,지카테쓰구조에키마에（오이시바시）,0,1,南
119300,東福寺,東福寺(南行),A,とうふくじ,Tofukuji,东福寺,東福寺,도후쿠지,0,1,東
119400,東福寺,東福寺(北行),B,とうふくじ,Tofukuji,东福寺,東福寺,도후쿠지,0,1,東
120300,泉涌寺道,泉涌寺道(南行),A,せんにゅうじみち,Sennyuji-michi (Sennyuji Temple),泉涌寺道,泉涌寺道,센뉴지미치,0,1,東
120400,泉涌寺道,泉涌寺道(北行),,せんにゅうじみち,Sennyuji-michi (Sennyuji Temple),泉涌寺道,泉涌寺道,센뉴지미치,0,1,東
121301,今熊野,今熊野(南行：臨時移設中),,いまぐまの,Imagumano,今熊野,今熊野,이마구마노,0,1,東
121401,今熊野,今熊野(北行：臨時移設中),,いまぐまの,Imagumano,今熊野,今熊野,이마구마노,0,1,東
122200,東山七条,東山七条(B),B,ひがしやまななじょう,Higashiyama Nanajo,东山七条,東山七条,히가시야마나나조,0,1,東
122300,東山七条,東山七条(A),A,ひがしやまななじょう,Higashiyama Nanajo,东山七条,東山七条,히가시야마나나조,0,1,東
122400,東山七条,東山七条(C),C,ひがしやまななじょう,Higashiyama Nanajo,东山七条,東山七条,히가시야마나나조,0,1,東
123300,馬町,馬町(南行),,うままち,Umamachi,马町,馬町,우마마치,0,1,東
123400,馬町,馬町(北行),,うままち,Umamachi,马町,馬町,우마마치,0,1,東
124200,五条坂,五条坂(B),B,ごじょうざか,Gojozaka,五条坂,五条坂,고조자카,0,1,東
124300,五条坂,五条坂(A),A,ごじょうざか,Gojozaka,五条坂,五条坂,고조자카,0,1,東
124400,五条坂,五条坂(C),C,ごじょうざか,Gojozaka,五条坂,五条坂,고조자카,0,1,東
125310,清水道,清水道(D),D,きよみずみち,Kiyomizu-michi,清水道,清水道,기요미즈미치,0,1,東
125320,清水道,清水道(A),A,きよみずみち,Kiyomizu-michi,清水道,清水道,기요미즈미치,0,1,東
125410,清水道,清水道(C),C,きよみずみち,Kiyomizu-michi,清水道,清水道,기요미즈미치,0,1,東
125420,清水道,清水道(B),B,きよみずみち,Kiyomizu-michi,清水道,清水道,기요미즈미치,0,1,東
126300,東山安井,東山安井(南行),,ひがしやまやすい,Higashiyama Yasui,东山安井,東山安井,히가시야마야스이,0,1,東
126400,東山安井,東山安井(北行),,ひがしやまやすい,Higashiyama Yasui,东山安井,東山安井,히가시야마야스이,0,1,東
127200,祇園,祇園(B),B,ぎおん,Gion,祇园,祇園,기온,0,1,東
127300,祇園,祇園(A),A,ぎおん,Gion,祇园,祇園,기온,0,1,東
127400,祇園,祇園(C),C,ぎおん,Gion,祇园,祇園,기온,0,1,東
128001,四条京阪前,四条京阪前(おりば),,しじょうけいはんまえ,Shijo Keihan-mae,四条京阪前,四条京阪前,시조케이한마에,0,1,東
128100,四条京阪前,四条京阪前(A),A,しじょうけいはんまえ,Shijo Keihan-mae,四条京阪前,四条京阪前,시조케이한마에,0,1,東
128200,四条京阪前,四条京阪前(B),B,しじょうけいはんまえ,Shijo Keihan-mae,四条京阪前,四条京阪前,시조케이한마에,0,1,東
128400,四条京阪前,四条京阪前(C),C,しじょうけいはんまえ,Shijo Keihan-mae,四条京阪前,四条京阪前,시조케이한마에,0,1,東
129300,上賀茂神社前,上賀茂神社前(南行),A,かみがもじんじゃまえ,Kamigamo Jinja-mae (Kamigamo-jinja Shrine),上贺茂神社前,上賀茂神社前,가미가모진자마에,0,1,北
129400,上賀茂神社前,上賀茂神社前(北行),B,かみがもじんじゃまえ,Kamigamo Jinja-mae (Kamigamo-jinja Shrine),上贺茂神社前,上賀茂神社前,가미가모진자마에,0,1,北
130100,九条近鉄前,九条近鉄前(東行),,くじょうきんてつまえ,Kujo Kintetsu-mae,九条近铁前,九条近鐵前,구조킨테쓰마에,0,1,南
130200,九条近鉄前,九条近鉄前(西行),,くじょうきんてつまえ,Kujo Kintetsu-mae,九条近铁前,九条近鐵前,구조킨테쓰마에,0,1,南
131100,九条大宮,九条大宮(C),C,くじょうおおみや,Kujo Omiya,九条大宫,九条大宮,구조오미야,0,1,南
131200,九条大宮,九条大宮(B),B,くじょうおおみや,Kujo Omiya,九条大宫,九条大宮,구조오미야,0,1,南
131300,九条大宮,九条大宮(A),A,くじょうおおみや,Kujo Omiya,九条大宫,九条大宮,구조오미야,0,1,南
131400,九条大宮,九条大宮(D),D,くじょうおおみや,Kujo Omiya,九条大宫,九条大宮,구조오미야,0,1,南
132100,東寺南門前,東寺南門前(東行),,とうじみなみもんまえ,Toji Minamimon-mae (Toji Temple),东寺南门前,東寺南門前,도지미나미몬마에,0,1,南
132200,東寺南門前,東寺南門前(西行),,とうじみなみもんまえ,Toji Minamimon-mae (Toji Temple),东寺南门前,東寺南門前,도지미나미몬마에,0,1,南
132300,東寺南門前,東寺南門前(南行),,とうじみなみもんまえ,Toji Minamimon-mae (Toji Temple),东寺南门前,東寺南門前,도지미나미몬마에,0,1,南
133300,東寺西門前,東寺西門前(南行),,とうじにしもんまえ,Toji Nishimon-mae,东寺西门前,東寺西門前,도지니시몬마에,0,1,南
133400,東寺西門前,東寺西門前(北行),,とうじにしもんまえ,Toji Nishimon-mae,东寺西门前,東寺西門前,도지니시몬마에,0,1,南
134100,御土居,御土居(東行),,おどい,Odoi,御土居,御土居,오도이,0,1,南
134200,御土居,御土居(西行),,おどい,Odoi,御土居,御土居,오도이,0,1,南
135100,八条中学前,八条中学前(東行),,はちじょうちゅうがくまえ,Hachijo Chugaku-mae,八条中学前,八条中學前,하치조추가쿠마에,0,1,南
135200,八条中学前,八条中学前(西行),,はちじょうちゅうがくまえ,Hachijo Chugaku-mae,八条中学前,八条中學前,하치조추가쿠마에,0,1,南
136100,西寺前,西寺前(東行),,さいじまえ,Saiji-mae,西寺前,西寺前,사이지마에,0,1,南
136200,西寺前,西寺前(西行),,さいじまえ,Saiji-mae,西寺前,西寺前,사이지마에,0,1,南
137100,九条御前通,九条御前通(東行),,くじょうおんまえどおり,Kujo Onmaedori,九条御前通,九条御前通,구조온마에도오리,0,1,南
137200,九条御前通,九条御前通(西行),,くじょうおんまえどおり,Kujo Onmaedori,九条御前通,九条御前通,구조온마에도오리,0,1,南
137300,九条御前通,九条御前通(南行),,くじょうおんまえどおり,Kujo Onmaedori,九条御前通,九条御前通,구조온마에도오리,0,1,南
138110,西大路九条,西大路九条(A),A,にしおおじくじょう,Nishioji Kujo,西大路九条,西大路九条,니시오지쿠조,0,1,南
138120,西大路九条,西大路九条(F),F,にしおおじくじょう,Nishioji Kujo,西大路九条,西大路九条,니시오지쿠조,0,1,南
138210,西大路九条,西大路九条(E),E,にしおおじくじょう,Nishioji Kujo,西大路九条,西大路九条,니시오지쿠조,0,1,南
138220,西大路九条,西大路九条(B),B,にしおおじくじょう,Nishioji Kujo,西大路九条,西大路九条,니시오지쿠조,0,1,南
138300,西大路九条,西大路九条(C),C,にしおおじくじょう,Nishioji Kujo,西大路九条,西大路九条,니시오지쿠조,0,1,南
138400,西大路九条,西大路九条(D),D,にしおおじくじょう,Nishioji Kujo,西大路九条,西大路九条,니시오지쿠조,0,1,南
139300,西大路八条,西大路八条(南行),A,にしおおじはちじょう,Nishioji Hachijo,西大路八条,西大路八条,니시오지하치조,0,1,南
139400,西大路八条,西大路八条(北行),B,にしおおじはちじょう,Nishioji Hachijo,西大路八条,西大路八条,니시오지하치조,0,1,南
140100,六孫王神社前,六孫王神社前(東行),,ろくそんのうじんじゃまえ,Rokusonno Jinja-mae (Rokusonno-jinja Shrine),六孙王神社前,六孫王神社前,로쿠손노진자마에,0,1,南
140200,六孫王神社前,六孫王神社前(西行),,ろくそんのうじんじゃまえ,Rokusonno Jinja-mae (Rokusonno-jinja Shrine),六孙王神社前,六孫王神社前,로쿠손노진자마에,0,1,南
141100,八条大宮,八条大宮(東行),,はちじょうおおみや,Hachijo Omiya,八条大宫,八条大宮,하치조오미야,0,1,南
141200,八条大宮,八条大宮(西行),,はちじょうおおみや,Hachijo Omiya,八条大宫,八条大宮,하치조오미야,0,1,南
142100,七条御前通,七条御前通(東行),A,ななじょうおんまえどおり,Nanajo Onmaedori,七条御前通,七条御前通,나나조온마에도오리,0,1,下
142200,七条御前通,七条御前通(西行),B,ななじょうおんまえどおり,Nanajo Onmaedori,七条御前通,七条御前通,나나조온마에도오리,0,1,下
143200,パルスプラザ前,パルスプラザ前(B),B,ぱるすぷらざまえ,Pulse Plaza-mae(Exhibition Hall),Pulse Plaza前（综合展厅）,Pulse Plaza前（綜合展廳）,파루스푸라자마에,0,1,伏
143300,パルスプラザ前,パルスプラザ前(A),A,ぱるすぷらざまえ,Pulse Plaza-mae(Exhibition Hall),Pulse Plaza前（综合展厅）,Pulse Plaza前（綜合展廳）,파루스푸라자마에,0,1,伏
143400,パルスプラザ前,パルスプラザ前(C),C,ぱるすぷらざまえ,Pulse Plaza-mae(Exhibition Hall),Pulse Plaza前（综合展厅）,Pulse Plaza前（綜合展廳）,파루스푸라자마에,0,1,伏
144100,市立病院前,市立病院前(東行),A,しりつびょういんまえ,Shiritsu Byoin-mae (Kyoto City Hospital),市立病院前（京都市立医院）,市立病院前（京都市立醫院）,시리쓰뵤인마에（교토시립병원）,0,1,下
144200,市立病院前,市立病院前(西行),B,しりつびょういんまえ,Shiritsu Byoin-mae (Kyoto City Hospital),市立病院前（京都市立医院）,市立病院前（京都市立醫院）,시리쓰뵤인마에（교토시립병원）,0,1,下
145100,八条油小路,八条油小路(東行),,はちじょうあぶらのこうじ,Hachijo Aburanokoji,八条油小路,八条油小路,하치조아부라노코지,0,1,南
145200,八条油小路,八条油小路(西行),,はちじょうあぶらのこうじ,Hachijo Aburanokoji,八条油小路,八条油小路,하치조아부라노코지,0,1,南
146001,竹田駅西口,竹田駅西口(おりば),,たけだえきにしぐち,Takeda Station (Nishiguchi),竹田站西口,竹田車站西口,다케다에키니시구치,0,1,伏
146310,竹田駅西口,竹田駅西口(B),B,たけだえきにしぐち,Takeda Station (Nishiguchi),竹田站西口,竹田車站西口,다케다에키니시구치,0,1,伏
146320,竹田駅西口,竹田駅西口(A),A,たけだえきにしぐち,Takeda Station (Nishiguchi),竹田站西口,竹田車站西口,다케다에키니시구치,0,1,伏
147410,竹田駅東口,竹田駅東口(A),A,たけだえきひがしぐち,Takeda Station (Higashiguchi),竹田站东口,竹田車站東口,다케다에키히가시구치,0,1,伏
147420,竹田駅東口,竹田駅東口(B),B,たけだえきひがしぐち,Takeda Station (Higashiguchi),竹田站东口,竹田車站東口,다케다에키히가시구치,0,1,伏
148002,みぶ操車場前,みぶ操車場前(おりば(車庫)),,みぶそうしゃじょうまえ,Mibu Soshajo-mae,壬生操车场前,壬生操車場前,미부소샤조마에,0,1,中
148300,みぶ操車場前,みぶ操車場前(南行),,みぶそうしゃじょうまえ,Mibu Soshajo-mae,壬生操车场前,壬生操車場前,미부소샤조마에,0,1,中
148400,みぶ操車場前,みぶ操車場前(北行),,みぶそうしゃじょうまえ,Mibu Soshajo-mae,壬生操车场前,壬生操車場前,미부소샤조마에,0,1,中
149300,千本三条・朱雀立命館前,千本三条・朱雀立命館前(南行),,せんぼんさんじょう・すざくりつめいかんまえ,Senbon Sanjo / Suzaku Ritsumeikan-mae,千本三条・朱雀立命馆前,千本三条・朱雀立命館前,센본산조・스자쿠리쓰메이칸마에,0,1,中
149400,千本三条・朱雀立命館前,千本三条・朱雀立命館前(北行),A,せんぼんさんじょう・すざくりつめいかんまえ,Senbon Sanjo / Suzaku Ritsumeikan-mae,千本三条・朱雀立命馆前,千本三条・朱雀立命館前,센본산조・스자쿠리쓰메이칸마에,0,1,中
150300,二条駅前,二条駅前(南行),A,にじょうえきまえ,Nijo Station,二条站前,二条車站前,니조에키마에,0,1,中
150400,二条駅前,二条駅前(北行),B,にじょうえきまえ,Nijo Station,二条站前,二条車站前,니조에키마에,0,1,中
151300,千本旧二条,千本旧二条(南行),,せんぼんきゅうにじょう,Senbon Kyunijo,千本旧二条,千本舊二条,센본큐니조,0,1,上
151410,千本旧二条,千本旧二条(北行北詰),,せんぼんきゅうにじょう,Senbon Kyunijo,千本旧二条,千本舊二条,센본큐니조,0,1,中
151420,千本旧二条,千本旧二条(北行南詰),,せんぼんきゅうにじょう,Senbon Kyunijo,千本旧二条,千本舊二条,센본큐니조,0,1,上
152100,千本丸太町,千本丸太町(A),A,せんぼんまるたまち,Senbon Marutamachi,千本丸太町,千本丸太町,센본마루타마치,0,1,上
152200,千本丸太町,千本丸太町(C),C,せんぼんまるたまち,Senbon Marutamachi,千本丸太町,千本丸太町,센본마루타마치,0,1,中
152300,千本丸太町,千本丸太町(B),B,せんぼんまるたまち,Senbon Marutamachi,千本丸太町,千本丸太町,센본마루타마치,0,1,上
152400,千本丸太町,千本丸太町(D),D,せんぼんまるたまち,Senbon Marutamachi,千本丸太町,千本丸太町,센본마루타마치,0,1,上
153300,千本出水,千本出水(南行),,せんぼんでみず,Senbon Demizu,千本出水,千本出水,센본데미즈,0,1,上
153400,千本出水,千本出水(北行),,せんぼんでみず,Senbon Demizu,千本出水,千本出水,센본데미즈,0,1,上
154310,千本中立売,千本中立売(B),B,せんぼんなかだちうり,Senbon Nakadachiuri,千本中立卖,千本中立賣,센본나카다치우리,0,1,上
154320,千本中立売,千本中立売(A),A,せんぼんなかだちうり,Senbon Nakadachiuri,千本中立卖,千本中立賣,센본나카다치우리,0,1,上
154400,千本中立売,千本中立売(C),C,せんぼんなかだちうり,Senbon Nakadachiuri,千本中立卖,千本中立賣,센본나카다치우리,0,1,上
155100,千本今出川,千本今出川(A),A,せんぼんいまでがわ,Senbon Imadegawa,千本今出川,千本今出川,센본이마데가와,0,1,上
155200,千本今出川,千本今出川(D),D,せんぼんいまでがわ,Senbon Imadegawa,千本今出川,千本今出川,센본이마데가와,0,1,上
155310,千本今出川,千本今出川(C),C,せんぼんいまでがわ,Senbon Imadegawa,千本今出川,千本今出川,센본이마데가와,0,1,上
155320,千本今出川,千本今出川(B),B,せんぼんいまでがわ,Senbon Imadegawa,千本今出川,千本今出川,센본이마데가와,0,1,上
155400,千本今出川,千本今出川(E),E,せんぼんいまでがわ,Senbon Imadegawa,千本今出川,千本今出川,센본이마데가와,0,1,上
156100,上七軒,上七軒(C),C,かみしちけん,Kamishichiken,上七轩,上七軒,가미시치켄,0,1,上
156200,上七軒,上七軒(B),B,かみしちけん,Kamishichiken,上七轩,上七軒,가미시치켄,0,1,上
156300,上七軒,上七軒(A),A,かみしちけん,Kamishichiken,上七轩,上七軒,가미시치켄,0,1,上
157100,北野天満宮前,北野天満宮前(東行),B,きたのてんまんぐうまえ,Kitano Tenmangu-mae (Kitano-tenmangu Shrine),北野天满宫前,北野天滿宮前,기타노텐만구마에,0,1,上
157200,北野天満宮前,北野天満宮前(西行),A,きたのてんまんぐうまえ,Kitano Tenmangu-mae (Kitano-tenmangu Shrine),北野天满宫前,北野天滿宮前,기타노텐만구마에,0,1,上
158110,北野白梅町,北野白梅町(B),B,きたのはくばいちょう,Kitano Hakubaicho,北野白梅町,北野白梅町,기타노하쿠바이초,0,1,北
158120,北野白梅町,北野白梅町(A),A,きたのはくばいちょう,Kitano Hakubaicho,北野白梅町,北野白梅町,기타노하쿠바이초,0,1,北
158210,北野白梅町,北野白梅町(F),F,きたのはくばいちょう,Kitano Hakubaicho,北野白梅町,北野白梅町,기타노하쿠바이초,0,1,北
158220,北野白梅町,北野白梅町(C),C,きたのはくばいちょう,Kitano Hakubaicho,北野白梅町,北野白梅町,기타노하쿠바이초,0,1,上
158300,北野白梅町,北野白梅町(D),D,きたのはくばいちょう,Kitano Hakubaicho,北野白梅町,北野白梅町,기타노하쿠바이초,0,1,北
158410,北野白梅町,北野白梅町(G),G,きたのはくばいちょう,Kitano Hakubaicho,北野白梅町,北野白梅町,기타노하쿠바이초,0,1,北
158420,北野白梅町,北野白梅町(E),E,きたのはくばいちょう,Kitano Hakubaicho,北野白梅町,北野白梅町,기타노하쿠바이초,0,1,北
159200,等持院道,等持院道(西行),,とうじいんみち,Tojiin-michi,等持院道,等持院道,도지인미치,0,1,北
159300,等持院道,等持院道(南行),,とうじいんみち,Tojiin-michi,等持院道,等持院道,도지인미치,0,1,北
159400,等持院道,等持院道(北行),,とうじいんみち,Tojiin-michi,等持院道,等持院道,도지인미치,0,1,北
160100,等持院南町,等持院南町(東行),,とうじいんみなみまち,Tojiin Minamimachi,等持院南町,等持院南町,도지인미나미마치,0,1,北
160200,等持院南町,等持院南町(西行),,とうじいんみなみまち,Tojiin Minamimachi,等持院南町,等持院南町,도지인미나미마치,0,1,北
161100,妙心寺北門前,妙心寺北門前(東行),,みょうしんじきたもんまえ,Myoshinji Kitamon-mae (Myoshinji Temple),妙心寺北门前,妙心寺北門前,묘신지키타몬마에,0,1,右
161200,妙心寺北門前,妙心寺北門前(西行),,みょうしんじきたもんまえ,Myoshinji Kitamon-mae (Myoshinji Temple),妙心寺北门前,妙心寺北門前,묘신지키타몬마에,0,1,右
162100,嵐電妙心寺駅前,嵐電妙心寺駅前(東行),,らんでんみょうしんじえきまえ,Randen Myoshinji Station,岚电妙心寺站前,嵐電妙心寺車站前,란덴묘신지에키마에,0,1,右
162200,嵐電妙心寺駅前,嵐電妙心寺駅前(西行),,らんでんみょうしんじえきまえ,Randen Myoshinji Station,岚电妙心寺站前,嵐電妙心寺車站前,란덴묘신지에키마에,0,1,右
163100,御室仁和寺,御室仁和寺(東行),,おむろにんなじ,Omuro Ninnaji (Omuro Ninnaji Temple),御室仁和寺,御室仁和寺,오무로닌나지,0,1,右
163200,御室仁和寺,御室仁和寺(西行),,おむろにんなじ,Omuro Ninnaji (Omuro Ninnaji Temple),御室仁和寺,御室仁和寺,오무로닌나지,0,1,右
164100,福王子,福王子(東行),,ふくおうじ,Fukuoji,福王子,福王子,후쿠오지,0,1,右
164200,福王子,福王子(西行),,ふくおうじ,Fukuoji,福王子,福王子,후쿠오지,0,1,右
164300,福王子,福王子(南行),,ふくおうじ,Fukuoji,福王子,福王子,후쿠오지,0,1,右
164400,福王子,福王子(北行),,ふくおうじ,Fukuoji,福王子,福王子,후쿠오지,0,1,右
165300,三宝寺,三宝寺(南行),,さんぽうじ,Sanpoji,三宝寺,三寶寺,산포지,0,1,右
165400,三宝寺,三宝寺(北行),,さんぽうじ,Sanpoji,三宝寺,三寶寺,산포지,0,1,右
166100,高鼻町,高鼻町(東行),,たかはなちょう,Takahanacho,高鼻町,高鼻町,다카하나초,0,1,右
166200,高鼻町,高鼻町(西行),,たかはなちょう,Takahanacho,高鼻町,高鼻町,다카하나초,0,1,右
167300,高雄病院前,高雄病院前(南行),,たかおびょういんまえ,Takao Byoin-mae (Takao Hospital),高雄病院前（高雄医院）,高雄病院前（高雄醫院）,다카오뵤인마에（다카오병원）,0,1,右
167400,高雄病院前,高雄病院前(北行),,たかおびょういんまえ,Takao Byoin-mae (Takao Hospital),高雄病院前（高雄医院）,高雄病院前（高雄醫院）,다카오뵤인마에（다카오병원）,0,1,右
168300,平岡八幡前,平岡八幡前(南行),,ひらおかはちまんまえ,Hiraokahachiman-mae,平冈八幡前,平岡八幡前,히라오카하치만마에,0,1,右
168400,平岡八幡前,平岡八幡前(北行),,ひらおかはちまんまえ,Hiraokahachiman-mae,平冈八幡前,平岡八幡前,히라오카하치만마에,0,1,右
169300,梅ヶ畑清水町,梅ヶ畑清水町(南行),,うめがはたしみずちょう,Umegahata Shimizucho,梅畑清水町,梅畑清水町,우메가하타시미즈초,0,1,右
169400,梅ヶ畑清水町,梅ヶ畑清水町(北行),,うめがはたしみずちょう,Umegahata Shimizucho,梅畑清水町,梅畑清水町,우메가하타시미즈초,0,1,右
170300,広芝町,広芝町(南行),,ひろしばちょう,Hiroshibacho,广芝町,廣芝町,히로시바초,0,1,右
170400,広芝町,広芝町(北行),,ひろしばちょう,Hiroshibacho,广芝町,廣芝町,히로시바초,0,1,右
171300,高雄小学校前,高雄小学校前(南行),,たかおしょうがっこうまえ,Takao Shogakko-mae,高雄小学校前,高雄小學校前,다카오쇼갓코마에,0,1,右
171400,高雄小学校前,高雄小学校前(北行),,たかおしょうがっこうまえ,Takao Shogakko-mae,高雄小学校前,高雄小學校前,다카오쇼갓코마에,0,1,右
172300,御経坂,御経坂(南行),,みきょうざか,Mikyozaka,御经坂,御經坂,미쿄자카,0,1,右
172400,御経坂,御経坂(北行),,みきょうざか,Mikyozaka,御经坂,御經坂,미쿄자카,0,1,右
173300,御所ノ口,御所ノ口(バス停),,ごしょのぐち,Goshonoguchi,御所之口,御所之口,고쇼노구치,0,1,右
174300,高雄,高雄(南行),,たかお,Takao,高雄,高雄,다카오,0,1,右
174400,高雄,高雄(北行),,たかお,Takao,高雄,高雄,다카오,0,1,右
175300,堀川鞍馬口,堀川鞍馬口(南行),,ほりかわくらまぐち,Horikawa Kuramaguchi,堀川鞍马口,堀川鞍馬口,호리카와쿠라마구치,0,1,北
175400,堀川鞍馬口,堀川鞍馬口(北行),,ほりかわくらまぐち,Horikawa Kuramaguchi,堀川鞍马口,堀川鞍馬口,호리카와쿠라마구치,0,1,北
176300,天神公園前,天神公園前(南行),A,てんじんこうえんまえ,Tenjin Koen-mae,天神公园前,天神公園前,덴진코엔마에,0,1,上
176400,天神公園前,天神公園前(北行),,てんじんこうえんまえ,Tenjin Koen-mae,天神公园前,天神公園前,덴진코엔마에,0,1,上
177300,堀川寺ノ内,堀川寺ノ内(南行),A,ほりかわてらのうち,Horikawa Teranouchi,堀川寺之内,堀川寺之內,호리카와테라노우치,0,1,上
177400,堀川寺ノ内,堀川寺ノ内(北行),B,ほりかわてらのうち,Horikawa Teranouchi,堀川寺之内,堀川寺之內,호리카와테라노우치,0,1,上
178300,堀川上立売,堀川上立売(南行),A,ほりかわかみだちうり,Horikawa Kamidachiuri,堀川上立卖,堀川上立賣,호리카와카미다치우리,0,1,上
178400,堀川上立売,堀川上立売(北行),B,ほりかわかみだちうり,Horikawa Kamidachiuri,堀川上立卖,堀川上立賣,호리카와카미다치우리,0,1,上
179100,堀川今出川,堀川今出川(A),A,ほりかわいまでがわ,Horikawa Imadegawa,堀川今出川,堀川今出川,호리카와이마데가와,0,1,上
179200,堀川今出川,堀川今出川(B),B,ほりかわいまでがわ,Horikawa Imadegawa,堀川今出川,堀川今出川,호리카와이마데가와,0,1,上
179300,堀川今出川,堀川今出川(C),C,ほりかわいまでがわ,Horikawa Imadegawa,堀川今出川,堀川今出川,호리카와이마데가와,0,1,上
179410,堀川今出川,堀川今出川(E),E,ほりかわいまでがわ,Horikawa Imadegawa,堀川今出川,堀川今出川,호리카와이마데가와,0,1,上
180300,一条戻橋・晴明神社前,一条戻橋・晴明神社前(南行),A,いちじょうもどりばしせいめいじんじゃまえ,Ichijo Modoribashi Seimei Jinja-mae (Seimei-jinja Shrine),一条戻桥・晴明神社前,一条戻橋・晴明神社前,이치조모도리바시・세이메이진자마에,0,1,上
180400,一条戻橋・晴明神社前,一条戻橋・晴明神社前(北行),B,いちじょうもどりばしせいめいじんじゃまえ,Ichijo Modoribashi Seimei Jinja-mae (Seimei-jinja Shrine),一条戻桥・晴明神社前,一条戻橋・晴明神社前,이치조모도리바시・세이메이진자마에,0,1,上
181300,堀川中立売,堀川中立売(南行),A,ほりかわなかだちうり,Horikawa Nakadachiuri,堀川中立卖,堀川中立賣,호리카와나카다치우리,0,1,上
181400,堀川中立売,堀川中立売(北行),B,ほりかわなかだちうり,Horikawa Nakadachiuri,堀川中立卖,堀川中立賣,호리카와나카다치우리,0,1,上
182300,堀川下長者町,堀川下長者町(南行),,ほりかわしもちょうじゃまち,Horikawa Shimochojamachi,堀川下长者町,堀川下長者町,호리카와시모초자마치,0,1,上
182400,堀川下長者町,堀川下長者町(北行),,ほりかわしもちょうじゃまち,Horikawa Shimochojamachi,堀川下长者町,堀川下長者町,호리카와시모초자마치,0,1,上
183300,堀川下立売,堀川下立売(A),,ほりかわしもだちうり,Horikawa Shimodachiuri,堀川下立卖,堀川下立賣,호리카와시모다치우리,0,1,上
183400,堀川下立売,堀川下立売(B),,ほりかわしもだちうり,Horikawa Shimodachiuri,堀川下立卖,堀川下立賣,호리카와시모다치우리,0,1,上
184100,堀川丸太町,堀川丸太町(C),C,ほりかわまるたまち,Horikawa Marutamachi,堀川丸太町,堀川丸太町,호리카와마루타마치,0,1,上
184200,堀川丸太町,堀川丸太町(B),B,ほりかわまるたまち,Horikawa Marutamachi,堀川丸太町,堀川丸太町,호리카와마루타마치,0,1,上
184300,堀川丸太町,堀川丸太町(A),A,ほりかわまるたまち,Horikawa Marutamachi,堀川丸太町,堀川丸太町,호리카와마루타마치,0,1,上
184400,堀川丸太町,堀川丸太町(D),D,ほりかわまるたまち,Horikawa Marutamachi,堀川丸太町,堀川丸太町,호리카와마루타마치,0,1,上
185300,二条城前,二条城前(南行),A,にじょうじょうまえ,Nijojo-mae (Nijo-jo Castle),二条城前,二条城前,니조조마에,0,1,中
185400,二条城前,二条城前(北行),B,にじょうじょうまえ,Nijojo-mae (Nijo-jo Castle),二条城前,二条城前,니조조마에,0,1,中
186100,堀川御池,堀川御池(A),A,ほりかわおいけ,Horikawa Oike,堀川御池,堀川御池,호리카와오이케,0,1,中
186200,堀川御池,堀川御池(B),B,ほりかわおいけ,Horikawa Oike,堀川御池,堀川御池,호리카와오이케,0,1,中
186300,堀川御池,堀川御池(C),C,ほりかわおいけ,Horikawa Oike,堀川御池,堀川御池,호리카와오이케,0,1,中
186400,堀川御池,堀川御池(D),D,ほりかわおいけ,Horikawa Oike,堀川御池,堀川御池,호리카와오이케,0,1,中
187300,堀川三条,堀川三条(南行),A,ほりかわさんじょう,Horikawa Sanjo,堀川三条,堀川三条,호리카와산조,0,1,中
187400,堀川三条,堀川三条(北行),B,ほりかわさんじょう,Horikawa Sanjo,堀川三条,堀川三条,호리카와산조,0,1,中
188310,堀川蛸薬師,堀川蛸薬師(B),B,ほりかわたこやくし,Horikawa Takoyakushi,堀川蛸药师,堀川蛸藥師,호리카와타코야쿠시,0,1,中
188320,堀川蛸薬師,堀川蛸薬師(A),A,ほりかわたこやくし,Horikawa Takoyakushi,堀川蛸药师,堀川蛸藥師,호리카와타코야쿠시,0,1,中
188400,堀川蛸薬師,堀川蛸薬師(C),C,ほりかわたこやくし,Horikawa Takoyakushi,堀川蛸药师,堀川蛸藥師,호리카와타코야쿠시,0,1,中
189300,堀川松原,堀川松原(南行),,ほりかわまつばら,Horikawa Matsubara,堀川松原,堀川松原,호리카와마쓰바라,0,1,下
189400,堀川松原,堀川松原(北行),,ほりかわまつばら,Horikawa Matsubara,堀川松原,堀川松原,호리카와마쓰바라,0,1,下
190100,堀川五条,堀川五条(東行),,ほりかわごじょう,Horikawa Gojo,堀川五条,堀川五条,호리카와고조,0,1,下
190200,堀川五条,堀川五条(西行),,ほりかわごじょう,Horikawa Gojo,堀川五条,堀川五条,호리카와고조,0,1,下
190300,堀川五条,堀川五条(南行),,ほりかわごじょう,Horikawa Gojo,堀川五条,堀川五条,호리카와고조,0,1,下
190400,堀川五条,堀川五条(北行),,ほりかわごじょう,Horikawa Gojo,堀川五条,堀川五条,호리카와고조,0,1,下
191300,西本願寺前,西本願寺前(南行),,にしほんがんじまえ,Nishihonganji-mae (Nishihonganji Temple),西本愿寺前,西本願寺前,니시혼간지마에,0,1,下
191400,西本願寺前,西本願寺前(北行),,にしほんがんじまえ,Nishihonganji-mae (Nishihonganji Temple),西本愿寺前,西本願寺前,니시혼간지마에,0,1,下
192100,七条堀川,七条堀川(B),B,ななじょうほりかわ,Nanajo Horikawa,七条堀川,七条堀川,나나조호리카와,0,1,下
192200,七条堀川,七条堀川(E),E,ななじょうほりかわ,Nanajo Horikawa,七条堀川,七条堀川,나나조호리카와,0,1,下
192310,七条堀川,七条堀川(C),C,ななじょうほりかわ,Nanajo Horikawa,七条堀川,七条堀川,나나조호리카와,0,1,下
192320,七条堀川,七条堀川(A),A,ななじょうほりかわ,Nanajo Horikawa,七条堀川,七条堀川,나나조호리카와,0,1,下
192410,七条堀川,七条堀川(F),F,ななじょうほりかわ,Nanajo Horikawa,七条堀川,七条堀川,나나조호리카와,0,1,下
192420,七条堀川,七条堀川(D),D,ななじょうほりかわ,Nanajo Horikawa,七条堀川,七条堀川,나나조호리카와,0,1,下
193100,七条西洞院,七条西洞院(東行),,ななじょうにしのとういん,Nanajo Nishinotoin,七条西洞院,七条西洞院,나나조니시노토인,0,1,下
193200,七条西洞院,七条西洞院(西行),,ななじょうにしのとういん,Nanajo Nishinotoin,七条西洞院,七条西洞院,나나조니시노토인,0,1,下
193300,七条西洞院,七条西洞院(南行),,ななじょうにしのとういん,Nanajo Nishinotoin,七条西洞院,七条西洞院,나나조니시노토인,0,1,下
193400,七条西洞院,七条西洞院(北行),,ななじょうにしのとういん,Nanajo Nishinotoin,七条西洞院,七条西洞院,나나조니시노토인,0,1,下
194100,山越,山越(東行),,やまごえ,Yamagoe,山越,山越,야마고에,0,1,右
194200,山越,山越(西行),,やまごえ,Yamagoe,山越,山越,야마고에,0,1,右
195100,ユースホステル前,ユースホステル前(東行),,ゆーすほすてるまえ,Youth Hostel-mae (Kyoto Utano Youth Hostel),Youth Hostel前（宇多野青年旅舍）,Youth Hostel前（宇多野青年旅舍）,유스호스테루마에（우타노 유스호스텔）,0,1,右
195200,ユースホステル前,ユースホステル前(西行),,ゆーすほすてるまえ,Youth Hostel-mae (Kyoto Utano Youth Hostel),Youth Hostel前（宇多野青年旅舍）,Youth Hostel前（宇多野青年旅舍）,유스호스테루마에（우타노 유스호스텔）,0,1,右
196100,宇多野病院前,宇多野病院前(東行),,うたのびょういんまえ,Utano Byoin-mae (Utano Hospital),宇多野病院前（宇多野医院）,宇多野病院前（宇多野醫院）,우타노뵤인마에（우타노병원）,0,1,右
196200,宇多野病院前,宇多野病院前(西行),,うたのびょういんまえ,Utano Byoin-mae (Utano Hospital),宇多野病院前（宇多野医院）,宇多野病院前（宇多野醫院）,우타노뵤인마에（우타노병원）,0,1,右
197100,鳴滝本町,鳴滝本町(東行),,なるたきほんまち,Narutaki Honmachi,鸣泷本町,鳴瀧本町,나루타키혼마치,0,1,右
197200,鳴滝本町,鳴滝本町(西行),,なるたきほんまち,Narutaki Honmachi,鸣泷本町,鳴瀧本町,나루타키혼마치,0,1,右
198100,府立体育館前,府立体育館前(東行),,ふりつたいいくかんまえ,Furitsu Taiikukan-mae (SHIMADZU ARENA KYOTO),府立体育馆前（岛津ARENA京都前）,府立體育館前（島津ARENA京都前）,후리쓰타이이쿠칸마에（시마즈 아레나 교토마에）,0,1,北
198200,府立体育館前,府立体育館前(西行),,ふりつたいいくかんまえ,Furitsu Taiikukan-mae (SHIMADZU ARENA KYOTO),府立体育馆前（岛津ARENA京都前）,府立體育館前（島津ARENA京都前）,후리쓰타이이쿠칸마에（시마즈 아레나 교토마에）,0,1,北
199300,大将軍,大将軍(南行),,たいしょうぐん,Taishogun,大将军,大將軍,다이쇼군,0,1,北
199400,大将軍,大将軍(北行),B,たいしょうぐん,Taishogun,大将军,大將軍,다이쇼군,0,1,北
200100,丸太町智恵光院,丸太町智恵光院(東行),,まるたまちちえこういん,Marutamachi Chiekoin,丸太町智恵光院,丸太町智恵光院,마루타마치치에코인,0,1,上
200200,丸太町智恵光院,丸太町智恵光院(西行),,まるたまちちえこういん,Marutamachi Chiekoin,丸太町智恵光院,丸太町智恵光院,마루타마치치에코인,0,1,上
201100,文化庁前・府庁前,文化庁前・府庁前(東行),A,ぶんかちょうまえ・ふちょうまえ,"Bunkacho-mae / Fucho-mae(Agency for Cultural Affairs, Government of Japan / Prefectural Office)",文化厅前・府厅前,文化廳前・府廳前,분카초마에・후초마에 （일본 문화청•교토부청）,0,1,中
201200,文化庁前・府庁前,文化庁前・府庁前(西行),B,ぶんかちょうまえ・ふちょうまえ,"Bunkacho-mae / Fucho-mae(Agency for Cultural Affairs, Government of Japan / Prefectural Office)",文化厅前・府厅前,文化廳前・府廳前,분카초마에・후초마에 （일본 문화청•교토부청）,0,1,中
202100,裁判所前,裁判所前(東行),,さいばんしょまえ,Saibansho-mae(Court),裁判所前（法院）,裁判所前（法院）,사이반쇼마에（법원）,0,1,上
202200,裁判所前,裁判所前(西行),B,さいばんしょまえ,Saibansho-mae(Court),裁判所前（法院）,裁判所前（法院）,사이반쇼마에（법원）,0,1,中
203300,知恩院前,知恩院前(南行),A,ちおんいんまえ,Chionin-mae (Chionin Temple),知恩院前,知恩院前,지온인마에,0,1,東
203400,知恩院前,知恩院前(北行),B,ちおんいんまえ,Chionin-mae (Chionin Temple),知恩院前,知恩院前,지온인마에,0,1,東
204310,西大路三条,西大路三条(B),B,にしおおじさんじょう,Nishioji Sanjo,西大路三条,西大路三条,니시오지산조,0,1,右
204320,西大路三条,西大路三条(A),A,にしおおじさんじょう,Nishioji Sanjo,西大路三条,西大路三条,니시오지산조,0,1,右
204400,西大路三条,西大路三条(C),C,にしおおじさんじょう,Nishioji Sanjo,西大路三条,西大路三条,니시오지산조,0,1,右
205100,山ノ内,山ノ内(東行),,やまのうち,Yamanouchi,山之内,山之內,야마노우치,0,1,右
205200,山ノ内,山ノ内(西行),,やまのうち,Yamanouchi,山之内,山之內,야마노우치,0,1,右
206300,庚申前,庚申前(南行),,こうしんまえ,Koshin-mae,庚申前,庚申前,고신마에,0,1,右
206400,庚申前,庚申前(北行),,こうしんまえ,Koshin-mae,庚申前,庚申前,고신마에,0,1,右
207100,竹田浄菩提院町,竹田浄菩提院町(東行),,たけだじょうぼだいいんちょう,Takeda Jobodaiincho,竹田净菩堤院町,竹田淨菩堤院町,다케다조보다이인초,0,1,伏
207200,竹田浄菩提院町,竹田浄菩提院町(西行),,たけだじょうぼだいいんちょう,Takeda Jobodaiincho,竹田净菩堤院町,竹田淨菩堤院町,다케다조보다이인초,0,1,伏
208100,蚕ノ社,蚕ノ社(東行),,かいこのやしろ,Kaikonoyashiro,蚕之社,蠶之社,가이코노야시로,0,1,右
208200,蚕ノ社,蚕ノ社(西行),,かいこのやしろ,Kaikonoyashiro,蚕之社,蠶之社,가이코노야시로,0,1,右
209100,太秦東口,太秦東口(東行),,うずまさひがしぐち,Uzumasa Higashiguchi,太秦东口,太秦東口,우즈마사히가시구치,0,1,右
209200,太秦東口,太秦東口(西行),,うずまさひがしぐち,Uzumasa Higashiguchi,太秦东口,太秦東口,우즈마사히가시구치,0,1,右
210100,太秦広隆寺前,太秦広隆寺前(東行),A,うずまさこうりゅうじまえ,Uzumasa Koryuji-mae (Koryuji Temple),太秦广隆寺前,太秦廣隆寺前,우즈마사코류지마에,0,1,右
210200,太秦広隆寺前,太秦広隆寺前(西行),B,うずまさこうりゅうじまえ,Uzumasa Koryuji-mae (Koryuji Temple),太秦广隆寺前,太秦廣隆寺前,우즈마사코류지마에,0,1,右
211100,太秦開町,太秦開町(東行),,うずまさひらきちょう,Uzumasa Hirakicho,太秦开町,太秦開町,우즈마사히라키초,0,1,右
211200,太秦開町,太秦開町(西行),,うずまさひらきちょう,Uzumasa Hirakicho,太秦开町,太秦開町,우즈마사히라키초,0,1,右
212100,帷子ノ辻,帷子ノ辻(東行),,かたびらのつじ,Katabiranotsuji,帷子之辻,帷子之辻,가타비라노쓰지,0,1,右
212200,帷子ノ辻,帷子ノ辻(西行),,かたびらのつじ,Katabiranotsuji,帷子之辻,帷子之辻,가타비라노쓰지,0,1,右
213100,生田口,生田口(東行),,おいたぐち,Oitaguchi,生田口,生田口,오이타구치,0,1,右
213200,生田口,生田口(西行),,おいたぐち,Oitaguchi,生田口,生田口,오이타구치,0,1,右
214100,有栖川,有栖川(東行),,ありすがわ,Arisugawa,有栖川,有栖川,아리스가와,0,1,右
214200,有栖川,有栖川(西行),,ありすがわ,Arisugawa,有栖川,有栖川,아리스가와,0,1,右
215100,車折神社前,車折神社前(東行),,くるまざきじんじゃまえ,Kurumazaki Jinja-mae (Kurumazaki-jinja Shrine),车折神社前,車折神社前,구루마자키진자마에,0,1,右
215200,車折神社前,車折神社前(西行),,くるまざきじんじゃまえ,Kurumazaki Jinja-mae (Kurumazaki-jinja Shrine),车折神社前,車折神社前,구루마자키진자마에,0,1,右
216100,下嵯峨,下嵯峨(東行),,しもさが,Shimo-Saga,下嵯峨,下嵯峨,시모사가,0,1,右
216200,下嵯峨,下嵯峨(西行),,しもさが,Shimo-Saga,下嵯峨,下嵯峨,시모사가,0,1,右
217100,嵐山（渡月橋北詰）,嵐山（渡月橋北詰）(東行),,あらしやま（とげつきょうきたづめ）,Arashiyama (Togetsukyo Kitazume),岚山（渡月桥北诘）,嵐山（渡月橋北詰）,아라시야마（도게쓰교키타즈메）,0,1,右
217200,嵐山（渡月橋北詰）,嵐山（渡月橋北詰）(西行),,あらしやま（とげつきょうきたづめ）,Arashiyama (Togetsukyo Kitazume),岚山（渡月桥北诘）,嵐山（渡月橋北詰）,아라시야마（도게쓰교키타즈메）,0,1,右
218001,立命館大学前,立命館大学前(おりば),,りつめいかんだいがくまえ,Ritsumeikan Daigaku-mae (Ritsumeikan University),立命馆大学前,立命館大學前,리쓰메이칸다이가쿠마에,0,1,北
218110,立命館大学前,立命館大学前(B),B,りつめいかんだいがくまえ,Ritsumeikan Daigaku-mae (Ritsumeikan University),立命馆大学前,立命館大學前,리쓰메이칸다이가쿠마에,0,1,北
218120,立命館大学前,立命館大学前(A),A,りつめいかんだいがくまえ,Ritsumeikan Daigaku-mae (Ritsumeikan University),立命馆大学前,立命館大學前,리쓰메이칸다이가쿠마에,0,1,北
218200,立命館大学前,立命館大学前(C),C,りつめいかんだいがくまえ,Ritsumeikan Daigaku-mae (Ritsumeikan University),立命馆大学前,立命館大學前,리쓰메이칸다이가쿠마에,0,1,北
221310,金閣寺道,金閣寺道(B),B,きんかくじみち,Kinkakuji-michi (Kinkakuji Temple),金阁寺道,金閣寺道,킨카쿠지미치（금각사）,0,1,北
221320,金閣寺道,金閣寺道(A),A,きんかくじみち,Kinkakuji-michi (Kinkakuji Temple),金阁寺道,金閣寺道,킨카쿠지미치（금각사）,0,1,北
221400,金閣寺道,金閣寺道(C),C,きんかくじみち,Kinkakuji-michi (Kinkakuji Temple),金阁寺道,金閣寺道,킨카쿠지미치（금각사）,0,1,北
222100,千本北大路,千本北大路(A),A,せんぼんきたおおじ,Senbon Kitaoji,千本北大路,千本北大路,센본키타오지,0,1,北
222200,千本北大路,千本北大路(C),C,せんぼんきたおおじ,Senbon Kitaoji,千本北大路,千本北大路,센본키타오지,0,1,北
222300,千本北大路,千本北大路(B),B,せんぼんきたおおじ,Senbon Kitaoji,千本北大路,千本北大路,센본키타오지,0,1,北
222400,千本北大路,千本北大路(D),D,せんぼんきたおおじ,Senbon Kitaoji,千本北大路,千本北大路,센본키타오지,0,1,北
223100,船岡山,船岡山(東行),A,ふなおかやま,Funaokayama,船冈山,船岡山,후나오카야마,0,1,北
223200,船岡山,船岡山(西行),B,ふなおかやま,Funaokayama,船冈山,船岡山,후나오카야마,0,1,北
224100,建勲神社前,建勲神社前(東行),,けんくんじんじゃまえ,Kenkun Jinja-mae (Kenkun-jinja Shrine),建勲神社前,建勲神社前,겐쿤진자마에,0,1,北
224200,建勲神社前,建勲神社前(西行),,けんくんじんじゃまえ,Kenkun Jinja-mae (Kenkun-jinja Shrine),建勲神社前,建勲神社前,겐쿤진자마에,0,1,北
225100,大徳寺前,大徳寺前(東行),,だいとくじまえ,Daitokuji-mae (Daitokuji Temple),大德寺前,大徳寺前,다이토쿠지마에,0,1,北
225200,大徳寺前,大徳寺前(西行),,だいとくじまえ,Daitokuji-mae (Daitokuji Temple),大德寺前,大徳寺前,다이토쿠지마에,0,1,北
226100,久我石原町,久我石原町(東行),,こがいしはらちょう,Koga Ishiharacho,久我石原町,久我石原町,고가이시하라초,0,1,伏
226200,久我石原町,久我石原町(西行・18号のりば),,こがいしはらちょう,Koga Ishiharacho,久我石原町,久我石原町,고가이시하라초,0,1,伏
227100,東土川橋,東土川橋(東行),,ひがしつちかわばし,Higashitsuchikawabashi,东土川桥,東土川橋,히가시쓰치카와바시,0,1,南
227200,東土川橋,東土川橋(西行),,ひがしつちかわばし,Higashitsuchikawabashi,东土川桥,東土川橋,히가시쓰치카와바시,0,1,南
228300,国道東土川,国道東土川(南行),,こくどうひがしつちかわ,Kokudo Higashitsuchikawa,国道东土川,國道東土川,고쿠도히가시쓰치카와,0,1,南
228400,国道東土川,国道東土川(北行),,こくどうひがしつちかわ,Kokudo Higashitsuchikawa,国道东土川,國道東土川,고쿠도히가시쓰치카와,0,1,向
229100,久世殿城町,久世殿城町(東行),,くぜとのしろちょう,Kuze Tonoshirocho,久世殿城町,久世殿城町,구제토노시로초,0,1,南
229300,久世殿城町,久世殿城町(南行),,くぜとのしろちょう,Kuze Tonoshirocho,久世殿城町,久世殿城町,구제토노시로초,0,1,南
229400,久世殿城町,久世殿城町(北行),,くぜとのしろちょう,Kuze Tonoshirocho,久世殿城町,久世殿城町,구제토노시로초,0,1,南
230300,下久世,下久世(南行),,しもくぜ,Shimo-Kuze,下久世,下久世,시모쿠제,0,1,南
230400,下久世,下久世(北行),,しもくぜ,Shimo-Kuze,下久世,下久世,시모쿠제,0,1,南
231100,中久世,中久世(東行),,なかくぜ,Nakakuze,中久世,中久世,나카쿠제,0,1,南
231200,中久世,中久世(西行),,なかくぜ,Nakakuze,中久世,中久世,나카쿠제,0,1,南
231300,中久世,中久世(南行),,なかくぜ,Nakakuze,中久世,中久世,나카쿠제,0,1,南
231400,中久世,中久世(北行),,なかくぜ,Nakakuze,中久世,中久世,나카쿠제,0,1,南
232100,久世橋西詰,久世橋西詰(東行),,くぜばしにしづめ,Kuzebashi Nishizume,久世桥西诘（西侧）,久世橋西詰（西側）,구제바시니시즈메,0,1,南
232200,久世橋西詰,久世橋西詰(西行),,くぜばしにしづめ,Kuzebashi Nishizume,久世桥西诘（西侧）,久世橋西詰（西側）,구제바시니시즈메,0,1,南
232300,久世橋西詰,久世橋西詰(南行),,くぜばしにしづめ,Kuzebashi Nishizume,久世桥西诘（西侧）,久世橋西詰（西側）,구제바시니시즈메,0,1,南
233110,久世橋東詰,久世橋東詰(東行東詰),,くぜばしひがしづめ,Kuzebashi Higashizume,久世桥东诘（东侧）,久世橋東詰（東側）,구제바시히가시즈메,0,1,南
233120,久世橋東詰,久世橋東詰(東行西詰),,くぜばしひがしづめ,Kuzebashi Higashizume,久世桥东诘（东侧）,久世橋東詰（東側）,구제바시히가시즈메,0,1,南
233200,久世橋東詰,久世橋東詰(西行),,くぜばしひがしづめ,Kuzebashi Higashizume,久世桥东诘（东侧）,久世橋東詰（東側）,구제바시히가시즈메,0,1,南
234300,吉祥院長田町,吉祥院長田町(南行),,きっしょういんながたちょう,Kisshoin Nagatacho,吉祥院长田町,吉祥院長田町,깃쇼인나가타초,0,1,南
234400,吉祥院長田町,吉祥院長田町(北行),,きっしょういんながたちょう,Kisshoin Nagatacho,吉祥院长田町,吉祥院長田町,깃쇼인나가타초,0,1,南
235300,吉祥院西ノ茶屋町,吉祥院西ノ茶屋町(南行),,きっしょういんにしのちゃやちょう,Kisshoin Nishinochayacho,吉祥院西之茶屋町,吉祥院西之茶屋町,깃쇼인니시노차야초,0,1,南
235400,吉祥院西ノ茶屋町,吉祥院西ノ茶屋町(北行),,きっしょういんにしのちゃやちょう,Kisshoin Nishinochayacho,吉祥院西之茶屋町,吉祥院西之茶屋町,깃쇼인니시노차야초,0,1,南
236100,吉祥院車道町,吉祥院車道町(東行),,きっしょういんくるまみちちょう,Kisshoin Kurumamichicho,吉祥院车道町,吉祥院車道町,깃쇼인쿠루마미치초,0,1,南
236200,吉祥院車道町,吉祥院車道町(西行),,きっしょういんくるまみちちょう,Kisshoin Kurumamichicho,吉祥院车道町,吉祥院車道町,깃쇼인쿠루마미치초,0,1,南
237100,西大路七条,西大路七条(B),B,にしおおじななじょう,Nishioji Nanajo,西大路七条,西大路七条,니시오지나나조,0,1,下
237200,西大路七条,西大路七条(D),D,にしおおじななじょう,Nishioji Nanajo,西大路七条,西大路七条,니시오지나나조,0,1,下
237310,西大路七条,西大路七条(C),C,にしおおじななじょう,Nishioji Nanajo,西大路七条,西大路七条,니시오지나나조,0,1,下
237320,西大路七条,西大路七条(A),A,にしおおじななじょう,Nishioji Nanajo,西大路七条,西大路七条,니시오지나나조,0,1,下
237400,西大路七条,西大路七条(E),E,にしおおじななじょう,Nishioji Nanajo,西大路七条,西大路七条,니시오지나나조,0,1,下
238300,西大路花屋町,西大路花屋町(南行),A,にしおおじはなやちょう,Nishioji Hanayacho,西大路花屋町,西大路花屋町,니시오지하나야초,0,1,下
238400,西大路花屋町,西大路花屋町(北行),B,にしおおじはなやちょう,Nishioji Hanayacho,西大路花屋町,西大路花屋町,니시오지하나야초,0,1,下
239100,西大路五条,西大路五条(A),A,にしおおじごじょう,Nishioji Gojo,西大路五条,西大路五条,니시오지고조,0,1,右
239200,西大路五条,西大路五条(C),C,にしおおじごじょう,Nishioji Gojo,西大路五条,西大路五条,니시오지고조,0,1,右
239300,西大路五条,西大路五条(B),B,にしおおじごじょう,Nishioji Gojo,西大路五条,西大路五条,니시오지고조,0,1,右
239400,西大路五条,西大路五条(D),D,にしおおじごじょう,Nishioji Gojo,西大路五条,西大路五条,니시오지고조,0,1,右
240300,西大路松原,西大路松原(南行),A,にしおおじまつばら,Nishioji Matsubara,西大路松原,西大路松原,니시오지마쓰바라,0,1,右
240400,西大路松原,西大路松原(北行),,にしおおじまつばら,Nishioji Matsubara,西大路松原,西大路松原,니시오지마쓰바라,0,1,右
241100,東北園町,東北園町(東行),,ひがしきたぞのちょう,Higashikitazonocho,东北园町,東北園町,히가시키타조노초,0,1,左
242300,左京区総合庁舎前,左京区総合庁舎前(南行),,さきょうくそうごうちょうしゃまえ,Sakyoku Sogochosha-mae (Sakyo Ward Office),左京区综合厅舍前（左京区政府）,左京區總合廳舍前（左京區公所）,사쿄쿠소고초샤마에（사쿄 구청）,0,1,左
242400,左京区総合庁舎前,左京区総合庁舎前(北行),,さきょうくそうごうちょうしゃまえ,Sakyoku Sogochosha-mae (Sakyo Ward Office),左京区综合厅舍前（左京区政府）,左京區總合廳舍前（左京區公所）,사쿄쿠소고초샤마에（사쿄 구청）,0,1,左
243100,修学院駅前,修学院駅前(東行),,しゅうがくいんえきまえ,Shugakuin Station,修学院站前,修學院車站前,슈가쿠인에키마에,0,1,左
243200,修学院駅前,修学院駅前(西行),,しゅうがくいんえきまえ,Shugakuin Station,修学院站前,修學院車站前,슈가쿠인에키마에,0,1,左
244100,松ヶ崎海尻町,松ヶ崎海尻町(東行),,まつがさきかいじりちょう,Matsugasaki Kaijiricho,松崎海尻町,松崎海尻町,마쓰가사키카이지리초,0,1,左
244200,松ヶ崎海尻町,松ヶ崎海尻町(西行),,まつがさきかいじりちょう,Matsugasaki Kaijiricho,松崎海尻町,松崎海尻町,마쓰가사키카이지리초,0,1,左
245100,桜木町,桜木町(東行),,さくらぎちょう,Sakuragicho,樱木町,櫻木町,사쿠라기초,0,1,北
245200,桜木町,桜木町(西行),,さくらぎちょう,Sakuragicho,樱木町,櫻木町,사쿠라기초,0,1,北
246310,わら天神前,わら天神前(B),B,わらてんじんまえ,Waratenjin-mae,藁天神前,藁天神前,와라텐진마에,0,1,北
246320,わら天神前,わら天神前(A),A,わらてんじんまえ,Waratenjin-mae,藁天神前,藁天神前,와라텐진마에,0,1,北
246410,わら天神前,わら天神前(D),D,わらてんじんまえ,Waratenjin-mae,藁天神前,藁天神前,와라텐진마에,0,1,北
246420,わら天神前,わら天神前(C),C,わらてんじんまえ,Waratenjin-mae,藁天神前,藁天神前,와라텐진마에,0,1,北
247300,衣笠校前,衣笠校前(南行),A,きぬがさこうまえ,Kinugasako-mae,衣笠校前,衣笠校前,기누가사코마에,0,1,北
247400,衣笠校前,衣笠校前(北行),B,きぬがさこうまえ,Kinugasako-mae,衣笠校前,衣笠校前,기누가사코마에,0,1,北
248300,北野中学前,北野中学前(南行),A,きたのちゅうがくまえ,Kitano Chugaku-mae,北野中学前,北野中學前,기타노추가쿠마에,0,1,中
248400,北野中学前,北野中学前(北行),B,きたのちゅうがくまえ,Kitano Chugaku-mae,北野中学前,北野中學前,기타노추가쿠마에,0,1,中
249100,西ノ京円町（ＪＲ円町駅）,西ノ京円町（ＪＲ円町駅）(B),B,にしのきょうえんまち（じぇいあーるえんまちえき）,Nishinokyo Enmachi (JR Enmachi Station),西之京圆町（ＪＲ圆町站）,西之京圓町（ＪＲ圓町車站）,니시노쿄엔마치（JR엔마치역）,0,1,中
249200,西ノ京円町（ＪＲ円町駅）,西ノ京円町（ＪＲ円町駅）(D),D,にしのきょうえんまち（じぇいあーるえんまちえき）,Nishinokyo Enmachi (JR Enmachi Station),西之京圆町（ＪＲ圆町站）,西之京圓町（ＪＲ圓町車站）,니시노쿄엔마치（JR엔마치역）,0,1,中
249310,西ノ京円町（ＪＲ円町駅）,西ノ京円町（ＪＲ円町駅）(C),C,にしのきょうえんまち（じぇいあーるえんまちえき）,Nishinokyo Enmachi (JR Enmachi Station),西之京圆町（ＪＲ圆町站）,西之京圓町（ＪＲ圓町車站）,니시노쿄엔마치（JR엔마치역）,0,1,中
249320,西ノ京円町（ＪＲ円町駅）,西ノ京円町（ＪＲ円町駅）(A),A,にしのきょうえんまち（じぇいあーるえんまちえき）,Nishinokyo Enmachi (JR Enmachi Station),西之京圆町（ＪＲ圆町站）,西之京圓町（ＪＲ圓町車站）,니시노쿄엔마치（JR엔마치역）,0,1,中
249400,西ノ京円町（ＪＲ円町駅）,西ノ京円町（ＪＲ円町駅）(E),E,にしのきょうえんまち（じぇいあーるえんまちえき）,Nishinokyo Enmachi (JR Enmachi Station),西之京圆町（ＪＲ圆町站）,西之京圓町（ＪＲ圓町車站）,니시노쿄엔마치（JR엔마치역）,0,1,中
250100,丸太町御前通,丸太町御前通(東行),A,まるたまちおんまえどおり,Marutamachi Onmaedori,丸太町御前通,丸太町御前通,마루타마치온마에도오리,0,1,中
250200,丸太町御前通,丸太町御前通(西行),B,まるたまちおんまえどおり,Marutamachi Onmaedori,丸太町御前通,丸太町御前通,마루타마치온마에도오리,0,1,中
251100,丸太町七本松,丸太町七本松(東行),,まるたまちしちほんまつ,Marutamachi Shichihonmatsu,丸太町七本松,丸太町七本松,마루타마치시치혼마쓰,0,1,中
251200,丸太町七本松,丸太町七本松(西行),,まるたまちしちほんまつ,Marutamachi Shichihonmatsu,丸太町七本松,丸太町七本松,마루타마치시치혼마쓰,0,1,中
251400,丸太町七本松,丸太町七本松(北行),,まるたまちしちほんまつ,Marutamachi Shichihonmatsu,丸太町七本松,丸太町七本松,마루타마치시치혼마쓰,0,1,中
252100,神泉苑前,神泉苑前(東行),,しんせんえんまえ,Shinsenen-mae,神泉苑前,神泉苑前,신센엔마에,0,1,中
252200,神泉苑前,神泉苑前(西行),,しんせんえんまえ,Shinsenen-mae,神泉苑前,神泉苑前,신센엔마에,0,1,中
253100,新町御池,新町御池(東行),,しんまちおいけ,Shinmachi Oike,新町御池,新町御池,신마치오이케,0,1,中
253200,新町御池,新町御池(西行),,しんまちおいけ,Shinmachi Oike,新町御池,新町御池,신마치오이케,0,1,中
254100,堺町御池,堺町御池(東行),,さかいまちおいけ,Sakaimachi Oike,堺町御池,堺町御池,사카이마치오이케,0,1,中
254200,堺町御池,堺町御池(西行),,さかいまちおいけ,Sakaimachi Oike,堺町御池,堺町御池,사카이마치오이케,0,1,中
255100,三条春日,三条春日(東行),,さんじょうかすが,Sanjo Kasuga,三条春日,三条春日,산조카스가,0,1,中
255200,三条春日,三条春日(西行),,さんじょうかすが,Sanjo Kasuga,三条春日,三条春日,산조카스가,0,1,右
256100,七条京阪前,七条京阪前(A),A,ななじょうけいはんまえ,Nanajo Keihan-mae,七条京阪前,七条京阪前,나나조케이한마에,0,1,東
256200,七条京阪前,七条京阪前(B),B,ななじょうけいはんまえ,Nanajo Keihan-mae,七条京阪前,七条京阪前,나나조케이한마에,0,1,東
256300,七条京阪前,七条京阪前(C),C,ななじょうけいはんまえ,Nanajo Keihan-mae,七条京阪前,七条京阪前,나나조케이한마에,0,1,東
256400,七条京阪前,七条京阪前(D),D,ななじょうけいはんまえ,Nanajo Keihan-mae,七条京阪前,七条京阪前,나나조케이한마에,0,1,東
257300,塩小路橋,塩小路橋(南行),,しおこうじばし,Shiokojibashi,盐小路桥,鹽小路橋,시오코지바시,0,1,東
257400,塩小路橋,塩小路橋(北行),B,しおこうじばし,Shiokojibashi,盐小路桥,鹽小路橋,시오코지바시,0,1,東
258300,東福寺道,東福寺道(南行),,とうふくじみち,Tofukuji-michi,东福寺道,東福寺道,도후쿠지미치,0,1,東
258400,東福寺道,東福寺道(北行),,とうふくじみち,Tofukuji-michi,东福寺道,東福寺道,도후쿠지미치,0,1,東
259300,月輪,月輪(南行),,つきのわ,Tsukinowa,月轮,月輪,쓰키노와,0,1,東
259400,月輪,月輪(北行),,つきのわ,Tsukinowa,月轮,月輪,쓰키노와,0,1,東
260300,十条相深町,十条相深町(南行),,じゅうじょうあいふかちょう,Jujo Aifukacho,十条相深町,十条相深町,주조아이후카초,0,1,東
260400,十条相深町,十条相深町(北行),,じゅうじょうあいふかちょう,Jujo Aifukacho,十条相深町,十条相深町,주조아이후카초,0,1,東
261300,稲荷大社前,稲荷大社前(南行),,いなりたいしゃまえ,Inari Taisha-mae (Inari-taisha Shrine),稲荷大社前,稲荷大社前,이나리타이샤마에,0,1,伏
261400,稲荷大社前,稲荷大社前(北行),,いなりたいしゃまえ,Inari Taisha-mae (Inari-taisha Shrine),稲荷大社前,稲荷大社前,이나리타이샤마에,0,1,伏
262300,警察学校前,警察学校前(南行),,けいさつがっこうまえ,Keisatsu Gakko-mae,警察学校前,警察學校前,게이사쓰갓코마에,0,1,伏
262400,警察学校前,警察学校前(北行),,けいさつがっこうまえ,Keisatsu Gakko-mae,警察学校前,警察學校前,게이사쓰갓코마에,0,1,伏
263300,龍谷大学前,龍谷大学前(南行),,りゅうこくだいがくまえ,Ryukoku Daigaku-mae (Ryukoku University),龙谷大学前,龍谷大學前,류코쿠다이가쿠마에,0,1,伏
263400,龍谷大学前,龍谷大学前(北行),,りゅうこくだいがくまえ,Ryukoku Daigaku-mae (Ryukoku University),龙谷大学前,龍谷大學前,류코쿠다이가쿠마에,0,1,伏
264300,深草西浦町,深草西浦町(南行),,ふかくさにしうらちょう,Fukakusa Nishiuracho,深草西浦町,深草西浦町,후카쿠사니시우라초,0,1,伏
264400,深草西浦町,深草西浦町(北行),,ふかくさにしうらちょう,Fukakusa Nishiuracho,深草西浦町,深草西浦町,후카쿠사니시우라초,0,1,伏
265100,聖母女学院前,聖母女学院前(東行),,せいぼじょがくいんまえ,Seibo Jogakuin-mae,圣母女学院前,聖母女學院前,세이보조가쿠인마에,0,1,伏
266100,坊町,坊町(東行),,ぼうちょう,Bocho,坊町,坊町,보초,0,1,伏
267300,僧坊町,僧坊町(南行),,そうぼうちょう,Sobocho,僧坊町,僧坊町,소보초,0,1,伏
268300,西久宝寺町,西久宝寺町(南行),,にしきゅうほうじちょう,Nishikyuhojicho,西久宝寺町,西久寶寺町,니시큐호지초,0,1,伏
269300,西寺町,西寺町(南行),,にしてらまち,Nishiteramachi,西寺町,西寺町,니시테라마치,0,1,伏
270300,東寺町,東寺町(南行),,ひがしてらまち,Higashiteramachi,东寺町,東寺町,히가시테라마치,0,1,伏
271200,教育大学前,教育大学前(西行),,きょういくだいがくまえ,Kyoiku Daigaku-mae (Kyoto University of Education),教育大学前,教育大學前,교이쿠다이가쿠마에,0,1,伏
272200,藤森神社,藤森神社(西行),,ふじのもりじんじゃ,Fujinomori Jinja (Fujinomori-jinja Shrine),藤森神社,藤森神社,후지노모리진자,0,1,伏
273400,藤森神社前,藤森神社前(北行),,ふじのもりじんじゃまえ,Fujinomori Jinja-mae (Fujinomori-jinja Shrine),藤森神社前,藤森神社前,후지노모리진자마에,0,1,伏
274200,直違橋一丁目,直違橋一丁目(西行),,すじかいばしいっちょうめ,Sujikaibashi 1(ichi)-chome,直违桥一丁目,直違橋一丁目,스지카이바시잇조메,0,1,伏
275300,藤ノ森,藤ノ森(南行),,ふじのもり,Fujinomori,藤之森,藤之森,후지노모리,0,1,伏
275400,藤ノ森,藤ノ森(北行),,ふじのもり,Fujinomori,藤之森,藤之森,후지노모리,0,1,伏
276300,等持院東町,等持院東町(南行),,とうじいんひがしまち,Tojiin Higashimachi,等持院东町,等持院東町,도지인히가시마치,0,1,北
276400,等持院東町,等持院東町(北行),,とうじいんひがしまち,Tojiin Higashimachi,等持院东町,等持院東町,도지인히가시마치,0,1,北
279200,西小路花屋町,西小路花屋町(西行),,にしこうじはなやちょう,Nishikoji Hanayacho,西小路花屋町,西小路花屋町,니시코지하나야초,0,1,右
283100,菱妻神社前,菱妻神社前(東行),,ひしづまじんじゃまえ,Hishizuma Jinja-mae (Hishizuma-jinja Shrine),菱妻神社前,菱妻神社前,히시즈마진자마에,0,1,伏
283200,菱妻神社前,菱妻神社前(西行),,ひしづまじんじゃまえ,Hishizuma Jinja-mae (Hishizuma-jinja Shrine),菱妻神社前,菱妻神社前,히시즈마진자마에,0,1,伏
284100,久我,久我(東行),,こが,Koga,久我,久我,고가,0,1,伏
284200,久我,久我(西行),,こが,Koga,久我,久我,고가,0,1,伏
284300,久我,久我(南行),,こが,Koga,久我,久我,고가,0,1,伏
284400,久我,久我(北行),,こが,Koga,久我,久我,고가,0,1,伏
285100,赤池,赤池(東行),,あかいけ,Akaike,赤池,赤池,아카이케,0,1,伏
285200,赤池,赤池(西行),,あかいけ,Akaike,赤池,赤池,아카이케,0,1,伏
285300,赤池,赤池(南行),,あかいけ,Akaike,赤池,赤池,아카이케,0,1,伏
286300,城南宮道,城南宮道(南行),,じょうなんぐうみち,Jonangu-michi,城南宫道,城南宮道,조난구미치,0,1,伏
287300,小枝橋,小枝橋(南行),,こえだばし,Koedabashi,小枝桥,小枝橋,고에다바시,0,1,南
287400,小枝橋,小枝橋(北行),,こえだばし,Koedabashi,小枝桥,小枝橋,고에다바시,0,1,南
288300,奈須野,奈須野(南行),,なすの,Nasuno,奈须野,奈須野,나스노,0,1,南
288400,奈須野,奈須野(北行),,なすの,Nasuno,奈须野,奈須野,나스노,0,1,南
289300,地蔵前,地蔵前(南行),,じぞうまえ,Jizo-mae,地蔵前,地蔵前,지조마에,0,1,南
289400,地蔵前,地蔵前(北行),,じぞうまえ,Jizo-mae,地蔵前,地蔵前,지조마에,0,1,南
290300,岩ノ本町,岩ノ本町(南行),,いわのもとちょう,Iwanomotocho,岩之本町,岩之本町,이와노모토초,0,1,南
290400,岩ノ本町,岩ノ本町(北行),,いわのもとちょう,Iwanomotocho,岩之本町,岩之本町,이와노모토초,0,1,南
291300,城ヶ前町,城ヶ前町(南行),,しろがまえちょう,Shirogamaecho,城前町,城前町,시로가마에초,0,1,南
291400,城ヶ前町,城ヶ前町(北行),,しろがまえちょう,Shirogamaecho,城前町,城前町,시로가마에초,0,1,南
292300,上鳥羽小学校前,上鳥羽小学校前(南行),,かみとばしょうがっこうまえ,Kamitoba Shogakko-mae,上鸟羽小学校前,上鳥羽小學校前,가미토바쇼갓코마에,0,1,南
292400,上鳥羽小学校前,上鳥羽小学校前(北行),,かみとばしょうがっこうまえ,Kamitoba Shogakko-mae,上鸟羽小学校前,上鳥羽小學校前,가미토바쇼갓코마에,0,1,南
293100,上鳥羽村山町,上鳥羽村山町(東行),,かみとばむらやまちょう,Kamitoba Murayamacho,上鸟羽村山町,上鳥羽村山町,가미토바무라야마초,0,1,南
293200,上鳥羽村山町,上鳥羽村山町(西行),,かみとばむらやまちょう,Kamitoba Murayamacho,上鸟羽村山町,上鳥羽村山町,가미토바무라야마초,0,1,南
293400,上鳥羽村山町,上鳥羽村山町(北行),,かみとばむらやまちょう,Kamitoba Murayamacho,上鸟羽村山町,上鳥羽村山町,가미토바무라야마초,0,1,南
294300,上ノ町,上ノ町(南行),,かみのちょう,Kaminocho,上之町,上之町,가미노초,0,1,南
294400,上ノ町,上ノ町(北行),,かみのちょう,Kaminocho,上之町,上之町,가미노초,0,1,南
295300,五丁橋,五丁橋(南行),,ごちょうばし,Gochobashi,五丁桥,五丁橋,고초바시,0,1,南
295400,五丁橋,五丁橋(北行),,ごちょうばし,Gochobashi,五丁桥,五丁橋,고초바시,0,1,南
296100,千本十条,千本十条(東行),A,せんぼんじゅうじょう,Senbon Jujo,千本十条,千本十条,센본주조,0,1,南
296210,千本十条,千本十条(西行),B,せんぼんじゅうじょう,Senbon Jujo,千本十条,千本十条,센본주조,0,1,南
296400,千本十条,千本十条(北行),,せんぼんじゅうじょう,Senbon Jujo,千本十条,千本十条,센본주조,0,1,南
297300,唐戸町,唐戸町(南行),,からとちょう,Karatocho,唐户町,唐戶町,가라토초,0,1,南
297400,唐戸町,唐戸町(北行),,からとちょう,Karatocho,唐户町,唐戶町,가라토초,0,1,南
298100,羅城門,羅城門(東行),,らじょうもん,Rajomon,罗城门,羅城門,라조몬,0,1,南
298200,羅城門,羅城門(西行),,らじょうもん,Rajomon,罗城门,羅城門,라조몬,0,1,南
299100,東寺東門前,東寺東門前(A),A,とうじひがしもんまえ,Toji Higashimon-mae (Toji Temple),东寺东门前,東寺東門前,도지히가시몬마에,0,1,南
299300,東寺東門前,東寺東門前(B),B,とうじひがしもんまえ,Toji Higashimon-mae (Toji Temple),东寺东门前,東寺東門前,도지히가시몬마에,0,1,南
299400,東寺東門前,東寺東門前(C),C,とうじひがしもんまえ,Toji Higashimon-mae (Toji Temple),东寺东门前,東寺東門前,도지히가시몬마에,0,1,南
300100,七条大宮・京都水族館前,七条大宮・京都水族館前(E),E,ななじょうおおみや・きょうとすいぞくかんまえ,Nanajo Omiya / Kyoto Suizokukan-mae (Kyoto Aquarium),七条大宫・京都水族馆前,七条大宮・京都水族館前,나나조오미야・교토스이조쿠칸마에（수족관）,0,1,下
300200,七条大宮・京都水族館前,七条大宮・京都水族館前(D),D,ななじょうおおみや・きょうとすいぞくかんまえ,Nanajo Omiya / Kyoto Suizokukan-mae (Kyoto Aquarium),七条大宫・京都水族馆前,七条大宮・京都水族館前,나나조오미야・교토스이조쿠칸마에（수족관）,0,1,下
300310,七条大宮・京都水族館前,七条大宮・京都水族館前(B),B,ななじょうおおみや・きょうとすいぞくかんまえ,Nanajo Omiya / Kyoto Suizokukan-mae (Kyoto Aquarium),七条大宫・京都水族馆前,七条大宮・京都水族館前,나나조오미야・교토스이조쿠칸마에（수족관）,0,1,下
300320,七条大宮・京都水族館前,七条大宮・京都水族館前(A),A,ななじょうおおみや・きょうとすいぞくかんまえ,Nanajo Omiya / Kyoto Suizokukan-mae (Kyoto Aquarium),七条大宫・京都水族馆前,七条大宮・京都水族館前,나나조오미야・교토스이조쿠칸마에（수족관）,0,1,下
300410,七条大宮・京都水族館前,七条大宮・京都水族館前(F),F,ななじょうおおみや・きょうとすいぞくかんまえ,Nanajo Omiya / Kyoto Suizokukan-mae (Kyoto Aquarium),七条大宫・京都水族馆前,七条大宮・京都水族館前,나나조오미야・교토스이조쿠칸마에（수족관）,0,1,下
300420,七条大宮・京都水族館前,七条大宮・京都水族館前(C),C,ななじょうおおみや・きょうとすいぞくかんまえ,Nanajo Omiya / Kyoto Suizokukan-mae (Kyoto Aquarium),七条大宫・京都水族馆前,七条大宮・京都水族館前,나나조오미야・교토스이조쿠칸마에（수족관）,0,1,下
301300,島原口,島原口(南行),,しまばらぐち,Shimabara-guchi,岛原口,島原口,시마바라구치,0,1,下
301400,島原口,島原口(北行),,しまばらぐち,Shimabara-guchi,岛原口,島原口,시마바라구치,0,1,下
302100,大宮五条,大宮五条(A),A,おおみやごじょう,Omiya Gojo,大宫五条,大宮五条,오미야고조,0,1,下
302200,大宮五条,大宮五条(C),C,おおみやごじょう,Omiya Gojo,大宫五条,大宮五条,오미야고조,0,1,下
302300,大宮五条,大宮五条(B),B,おおみやごじょう,Omiya Gojo,大宫五条,大宮五条,오미야고조,0,1,下
302400,大宮五条,大宮五条(D),D,おおみやごじょう,Omiya Gojo,大宫五条,大宮五条,오미야고조,0,1,下
303300,大宮松原,大宮松原(南行),,おおみやまつばら,Omiya Matsubara,大宫松原,大宮松原,오미야마쓰바라,0,1,下
303400,大宮松原,大宮松原(北行),,おおみやまつばら,Omiya Matsubara,大宫松原,大宮松原,오미야마쓰바라,0,1,下
304100,岡崎公園 ロームシアター京都・みやこめっせ前,ロームシアター京都みやこめっせ前(D),D,おかざきこうえんろーむしあたーきょうと・みやこめっせまえ,Okazaki Koen ROHM Theatre Kyoto / Miyakomesse-mae (Exhibition Hall),冈崎公园 京都罗姆剧院・Miyakomesse前（展览大厅）,岡崎公園 京都羅姆劇院・Miyakomesse前（展覽大廳）,오카자키코엔 로옴 시아타 교토/미야코 멧세 마에（전시장）,0,1,左
304200,岡崎公園 ロームシアター京都・みやこめっせ前,ロームシアター京都みやこめっせ前(C),C,おかざきこうえんろーむしあたーきょうと・みやこめっせまえ,Okazaki Koen ROHM Theatre Kyoto / Miyakomesse-mae (Exhibition Hall),冈崎公园 京都罗姆剧院・Miyakomesse前（展览大厅）,岡崎公園 京都羅姆劇院・Miyakomesse前（展覽大廳）,오카자키코엔 로옴 시아타 교토/미야코 멧세 마에（전시장）,0,1,左
305100,五条西洞院,五条西洞院(東行),,ごじょうにしのとういん,Gojo Nishinotoin,五条西洞院,五条西洞院,고조니시노토인,0,1,下
305200,五条西洞院,五条西洞院(西行),,ごじょうにしのとういん,Gojo Nishinotoin,五条西洞院,五条西洞院,고조니시노토인,0,1,下
305300,五条西洞院,五条西洞院(南行),,ごじょうにしのとういん,Gojo Nishinotoin,五条西洞院,五条西洞院,고조니시노토인,0,1,下
305400,五条西洞院,五条西洞院(北行),,ごじょうにしのとういん,Gojo Nishinotoin,五条西洞院,五条西洞院,고조니시노토인,0,1,下
306300,西洞院六条,西洞院六条(南行),,にしのとういんろくじょう,Nishinotoin Rokujo,西洞院六条,西洞院六条,니시노토인로쿠조,0,1,下
306400,西洞院六条,西洞院六条(北行),,にしのとういんろくじょう,Nishinotoin Rokujo,西洞院六条,西洞院六条,니시노토인로쿠조,0,1,下
307300,西洞院正面,西洞院正面(南行),,にしのとういんしょうめん,Nishinotoin Shomen,西洞院正面,西洞院正面,니시노토인쇼멘,0,1,下
307400,西洞院正面,西洞院正面(北行),,にしのとういんしょうめん,Nishinotoin Shomen,西洞院正面,西洞院正面,니시노토인쇼멘,0,1,下
308200,市民防災センター前,市民防災センター前(西行),,しみんぼうさいせんたーまえ,Shimin Bosai Center-mae (Kyoto City Disaster Prevention Center),市民防灾Center前（市民防灾中心）,市民防災Center前（市民防災中心）,시민보사이센타마에,0,1,南
308300,市民防災センター前,市民防災センター前(南行),,しみんぼうさいせんたーまえ,Shimin Bosai Center-mae (Kyoto City Disaster Prevention Center),市民防灾Center前（市民防灾中心）,市民防災Center前（市民防災中心）,시민보사이센타마에,0,1,南
308400,市民防災センター前,市民防災センター前(北行),,しみんぼうさいせんたーまえ,Shimin Bosai Center-mae (Kyoto City Disaster Prevention Center),市民防灾Center前（市民防灾中心）,市民防災Center前（市民防災中心）,시민보사이센타마에,0,1,南
309100,上鳥羽,上鳥羽(東行),,かみとば,Kamitoba,上鸟羽,上鳥羽,가미토바,0,1,南
309200,上鳥羽,上鳥羽(西行),,かみとば,Kamitoba,上鸟羽,上鳥羽,가미토바,0,1,南
309300,上鳥羽,上鳥羽(南行),,かみとば,Kamitoba,上鸟羽,上鳥羽,가미토바,0,1,南
309400,上鳥羽,上鳥羽(北行),,かみとば,Kamitoba,上鸟羽,上鳥羽,가미토바,0,1,南
310100,城南宮,城南宮(東行),,じょうなんぐう,Jonangu (Jonangu Shrine),城南宫,城南宮,조난구,0,1,伏
310200,城南宮,城南宮(西行),,じょうなんぐう,Jonangu (Jonangu Shrine),城南宫,城南宮,조난구,0,1,伏
310300,城南宮,城南宮(南行),,じょうなんぐう,Jonangu (Jonangu Shrine),城南宫,城南宮,조난구,0,1,伏
310400,城南宮,城南宮(北行),,じょうなんぐう,Jonangu (Jonangu Shrine),城南宫,城南宮,조난구,0,1,伏
311100,国道赤池,国道赤池(東行),,こくどうあかいけ,Kokudo Akaike,国道赤池,國道赤池,고쿠도아카이케,0,1,伏
311200,国道赤池,国道赤池(西行),,こくどうあかいけ,Kokudo Akaike,国道赤池,國道赤池,고쿠도아카이케,0,1,伏
311300,国道赤池,国道赤池(南行),,こくどうあかいけ,Kokudo Akaike,国道赤池,國道赤池,고쿠도아카이케,0,1,伏
311400,国道赤池,国道赤池(北行),,こくどうあかいけ,Kokudo Akaike,国道赤池,國道赤池,고쿠도아카이케,0,1,伏
312100,下鳥羽城ノ越町,下鳥羽城ノ越町(東行),,しもとばしろのこしちょう,Shimotoba Shironokoshicho,下鸟羽城之越町,下鳥羽城之越町,시모토바시로노코시초,0,1,伏
312200,下鳥羽城ノ越町,下鳥羽城ノ越町(西行),,しもとばしろのこしちょう,Shimotoba Shironokoshicho,下鸟羽城之越町,下鳥羽城之越町,시모토바시로노코시초,0,1,伏
312300,下鳥羽城ノ越町,下鳥羽城ノ越町(南行),,しもとばしろのこしちょう,Shimotoba Shironokoshicho,下鸟羽城之越町,下鳥羽城之越町,시모토바시로노코시초,0,1,伏
312400,下鳥羽城ノ越町,下鳥羽城ノ越町(北行),,しもとばしろのこしちょう,Shimotoba Shironokoshicho,下鸟羽城之越町,下鳥羽城之越町,시모토바시로노코시초,0,1,伏
313300,国道下鳥羽,国道下鳥羽(南行),,こくどうしもとば,Kokudo Shimotoba,国道下鸟羽,國道下鳥羽,고쿠도시모토바,0,1,伏
313400,国道下鳥羽,国道下鳥羽(北行),,こくどうしもとば,Kokudo Shimotoba,国道下鸟羽,國道下鳥羽,고쿠도시모토바,0,1,伏
314100,国道大手筋,国道大手筋(東行),,こくどうおおてすじ,Kokudo Otesuji,国道大手筋,國道大手筋,고쿠도오테스지,0,1,伏
314200,国道大手筋,国道大手筋(西行),,こくどうおおてすじ,Kokudo Otesuji,国道大手筋,國道大手筋,고쿠도오테스지,0,1,伏
315100,三栖公園前,三栖公園前(東行),A,みすこうえんまえ,Misu Koen-mae,三栖公园前,三栖公園前,미스코엔마에,0,1,伏
315200,三栖公園前,三栖公園前(西行),B,みすこうえんまえ,Misu Koen-mae,三栖公园前,三栖公園前,미스코엔마에,0,1,伏
315400,三栖公園前,三栖公園前(北行),,みすこうえんまえ,Misu Koen-mae,三栖公园前,三栖公園前,미스코엔마에,0,1,伏
316100,西大手筋,西大手筋(東行),,にしおおてすじ,Nishi-Otesuji,西大手筋,西大手筋,니시오테스지,0,1,伏
316200,西大手筋,西大手筋(西行),,にしおおてすじ,Nishi-Otesuji,西大手筋,西大手筋,니시오테스지,0,1,伏
316300,西大手筋,西大手筋(南行),,にしおおてすじ,Nishi-Otesuji,西大手筋,西大手筋,니시오테스지,0,1,伏
316400,西大手筋,西大手筋(北行),,にしおおてすじ,Nishi-Otesuji,西大手筋,西大手筋,니시오테스지,0,1,伏
317300,京橋,京橋(南行),,きょうばし,Kyobashi,京桥,京橋,교바시,0,1,伏
317400,京橋,京橋(北行),,きょうばし,Kyobashi,京桥,京橋,교바시,0,1,伏
318300,中書島,中書島(南行),A,ちゅうしょじま,Chushojima,中书岛,中書島,주쇼지마,0,1,伏
318400,中書島,中書島(北行),B,ちゅうしょじま,Chushojima,中书岛,中書島,주쇼지마,0,1,伏
319300,八丁畷,八丁畷(南行),,はっちょうなわて,Hatchonawate,八丁缀,八丁畷,핫초나와테,1,1,伏
319410,八丁畷,八丁畷(北行北詰),,はっちょうなわて,Hatchonawate,八丁缀,八丁畷,핫초나와테,1,1,伏
319420,八丁畷,八丁畷(北行南詰),,はっちょうなわて,Hatchonawate,八丁缀,八丁畷,핫초나와테,1,1,伏
320200,府道横大路,府道横大路(西行),,ふどうよこおおじ,Fudo Yokooji,府道横大路,府道橫大路,후도요코오지,1,1,伏
320300,府道横大路,府道横大路(南行),,ふどうよこおおじ,Fudo Yokooji,府道横大路,府道橫大路,후도요코오지,1,1,伏
320400,府道横大路,府道横大路(北行),,ふどうよこおおじ,Fudo Yokooji,府道横大路,府道橫大路,후도요코오지,1,1,伏
321300,富ノ森,富ノ森(南行),,とみのもり,Tominomori,富之森,富之森,도미노모리,1,1,伏
321400,富ノ森,富ノ森(北行),,とみのもり,Tominomori,富之森,富之森,도미노모리,1,1,伏
322300,納所北城堀,納所北城堀(南行),,のうそきたしろほり,Noso Kitashirohori,纳所北城堀,納所北城堀,노소키타시로호리,1,1,伏
322400,納所北城堀,納所北城堀(北行),,のうそきたしろほり,Noso Kitashirohori,纳所北城堀,納所北城堀,노소키타시로호리,1,1,伏
323300,納所町,納所町(南行),,のうそちょう,Nosocho,纳所町,納所町,노소초,1,1,伏
323400,納所町,納所町(北行),,のうそちょう,Nosocho,纳所町,納所町,노소초,1,1,伏
324200,京阪淀駅,京阪淀駅(2),2,けいはんよどえき,Keihan Yodo Station,京阪淀站,京阪淀車站,게이한요도에키,0,1,伏
325300,太秦小学校前,太秦小学校前(南行),,うずまさしょうがっこうまえ,Uzumasa Shogakko-mae,太秦小学校前,太秦小學校前,우즈마사쇼갓코마에,0,1,右
325400,太秦小学校前,太秦小学校前(北行),B,うずまさしょうがっこうまえ,Uzumasa Shogakko-mae,太秦小学校前,太秦小學校前,우즈마사쇼갓코마에,0,1,右
326300,南太秦,南太秦(南行),,みなみうずまさ,Minami-Uzumasa,南太秦,南太秦,미나미우즈마사,0,1,右
326400,南太秦,南太秦(北行),,みなみうずまさ,Minami-Uzumasa,南太秦,南太秦,미나미우즈마사,0,1,右
327400,立命館大学前（キャンパス内）,立命館大学前（キャンパス内）(バス停),,りつめいかんだいがくまえ（きゃんぱすない）,Ritsumeikan Daigaku-mae (Ritsumeikan University Campus),立命馆大学前（校园）,立命館大學前（校區）,리쓰메이칸다이가쿠마에（구내）,0,1,北
328300,鳴滝松本町,鳴滝松本町(南行),,なるたきまつもとちょう,Narutaki Matsumotocho,鸣泷松本町,鳴瀧松本町,나루타키마쓰모토초,0,1,右
328400,鳴滝松本町,鳴滝松本町(北行),,なるたきまつもとちょう,Narutaki Matsumotocho,鸣泷松本町,鳴瀧松本町,나루타키마쓰모토초,0,1,右
329300,河原町東寺道,河原町東寺道(南行),A,かわらまちとうじみち,Kawaramachi Tojimichi,河原町东寺道,河原町東寺道,가와라마치토지미치,0,1,南
329400,河原町東寺道,河原町東寺道(北行),B,かわらまちとうじみち,Kawaramachi Tojimichi,河原町东寺道,河原町東寺道,가와라마치토지미치,0,1,南
330300,七本松仁和寺街道,七本松仁和寺街道(南行),,しちほんまつにんなじかいどう,Shichihonmatsu Ninnajikaido,七本松仁和寺街道,七本松仁和寺街道,시치혼마쓰닌나지카이도,0,1,上
330400,七本松仁和寺街道,七本松仁和寺街道(北行),,しちほんまつにんなじかいどう,Shichihonmatsu Ninnajikaido,七本松仁和寺街道,七本松仁和寺街道,시치혼마쓰닌나지카이도,0,1,上
331300,七本松出水,七本松出水(南行),,しちほんまつでみず,Shichihonmatsu Demizu,七本松出水,七本松出水,시치혼마쓰데미즈,0,1,上
331400,七本松出水,七本松出水(北行),,しちほんまつでみず,Shichihonmatsu Demizu,七本松出水,七本松出水,시치혼마쓰데미즈,0,1,上
333300,槇ノ尾,槇ノ尾(バス停),,まきのお,Makinoo,槇之尾,槙之尾,마키노오,0,1,右
334300,栂ノ尾,栂ノ尾(バス停),,とがのお,Toganoo,栂之尾,栂之尾,도가노오,0,1,右
335100,左京区総合庁舎・京都工芸繊維大学前,左京区総合庁舎・京都工芸繊維大学前(東行),,さきょうくそうごうちょうしゃ・きょうとこうげいせんいだいがくまえ,Sakyoku Sogochosha / Kyoto Kougeisen'i Daigaku-mae (Sakyo Ward Office / Kyoto Institute of Technology),左京区综合厅舍（左京区政府）・京都工艺纤维大学前,左京區總合廳舍（左京區公所）・京都工藝纖維大學前,사쿄쿠소고초샤（사쿄 구청）・교토고게이센이다이가쿠마에,0,1,左
335200,左京区総合庁舎・京都工芸繊維大学前,左京区総合庁舎・京都工芸繊維大学前(西行),,さきょうくそうごうちょうしゃ・きょうとこうげいせんいだいがくまえ,Sakyoku Sogochosha / Kyoto Kougeisen'i Daigaku-mae (Sakyo Ward Office / Kyoto Institute of Technology),左京区综合厅舍（左京区政府）・京都工艺纤维大学前,左京區總合廳舍（左京區公所）・京都工藝纖維大學前,사쿄쿠소고초샤（사쿄 구청）・교토고게이센이다이가쿠마에,0,1,左
343100,国道沓掛口,国道沓掛口(東行),,こくどうくつかけぐち,Kokudo Kutsukake-guchi,国道沓挂口,國道沓掛口,고쿠도쿠쓰카케구치,1,3,西
343300,国道沓掛口,国道沓掛口(南行),,こくどうくつかけぐち,Kokudo Kutsukake-guchi,国道沓挂口,國道沓掛口,고쿠도쿠쓰카케구치,1,3,西
343400,国道沓掛口,国道沓掛口(北行),,こくどうくつかけぐち,Kokudo Kutsukake-guchi,国道沓挂口,國道沓掛口,고쿠도쿠쓰카케구치,1,3,西
344100,川田道,川田道(東行),,かわたみち,Kawatamichi,川田道,川田道,가와타미치,1,0,山
345100,山科西野,山科西野(東行),,やましなにしの,Yamashina Nishino,山科西野,山科西野,야마시나니시노,1,0,山
346400,山科団地,山科団地(北行),,やましなだんち,Yamashina Danchi,山科团地,山科團地,야마시나단치,1,0,山
347200,国道東野,国道東野(西行),,こくどうひがしの,Kokudo Higashino,国道东野,國道東野,고쿠도히가시노,1,0,山
349300,桃陵団地前,桃陵団地前(南行),,とうりょうだんちまえ,Toryo Danchi-mae,桃陵团地前,桃陵團地前,도료단치마에,1,1,伏
349400,桃陵団地前,桃陵団地前(北行),,とうりょうだんちまえ,Toryo Danchi-mae,桃陵团地前,桃陵團地前,도료단치마에,1,1,伏
350200,地下鉄九条駅前（大石橋）,地下鉄九条駅前（大石橋）(F),F,ちかてつくじょうえきまえ（おおいしばし）,Subway Kujo Station (Oishibashi),地铁九条站前（大石桥）,地下鐵九条車站前（大石橋）,지카테쓰구조에키마에（오이시바시）,0,1,南
350300,地下鉄九条駅前（大石橋）,地下鉄九条駅前（大石橋）(E),E,ちかてつくじょうえきまえ（おおいしばし）,Subway Kujo Station (Oishibashi),地铁九条站前（大石桥）,地下鐵九条車站前（大石橋）,지카테쓰구조에키마에（오이시바시）,0,1,南
351300,伏見警察署前,伏見警察署前(南行),A,ふしみけいさつしょまえ,Fushimi Keisatsusho-mae,伏见警察署前,伏見警察署前,후시미케이사쓰쇼마에,1,1,伏
351400,伏見警察署前,伏見警察署前(北行),B,ふしみけいさつしょまえ,Fushimi Keisatsusho-mae,伏见警察署前,伏見警察署前,후시미케이사쓰쇼마에,1,1,伏
352300,下鳥羽,下鳥羽(南行),,しもとば,Shimotoba,下鸟羽,下鳥羽,시모토바,0,1,伏
352400,下鳥羽,下鳥羽(北行),,しもとば,Shimotoba,下鸟羽,下鳥羽,시모토바,0,1,伏
353300,三町,三町(南行),,さんちょう,Sancho,三町,三町,산초,0,1,伏
353400,三町,三町(北行),,さんちょう,Sancho,三町,三町,산초,0,1,伏
355100,横大路,横大路(東行),,よこおおじ,Yokooji,横大路,橫大路,요코오지,0,1,伏
355200,横大路,横大路(西行),,よこおおじ,Yokooji,横大路,橫大路,요코오지,0,1,伏
356100,梅小路公園・ＪＲ梅小路京都西駅前,梅小路公園・ＪＲ梅小路京都西駅前(東行),A,うめこうじこうえん・じぇいあーるうめこうじきょうとにしえきまえ,Umekoji Koen / JR Umekoji-Kyotonishi Station,梅小路公园・ＪＲ梅小路京都西站前,梅小路公園・ＪＲ梅小路京都西車站前,우메코지코엔・ＪＲ우메코지교토니시에키마에,0,1,下
356200,梅小路公園・ＪＲ梅小路京都西駅前,梅小路公園・ＪＲ梅小路京都西駅前(西行),B,うめこうじこうえん・じぇいあーるうめこうじきょうとにしえきまえ,Umekoji Koen / JR Umekoji-Kyotonishi Station,梅小路公园・ＪＲ梅小路京都西站前,梅小路公園・ＪＲ梅小路京都西車站前,우메코지코엔・ＪＲ우메코지교토니시에키마에,0,1,下
357100,梅小路公園・京都鉄道博物館前,梅小路公園・京都鉄道博物館前(東行),,うめこうじこうえん・きょうとてつどうはくぶつかんまえ,Umekoji Koen / Kyoto Tetsudo Hakubutsukan-mae (Umekoji Park / Kyoto Railway Museum),梅小路公园・京都铁道博物馆前,梅小路公園・京都鐵道博物館前,우메코지코엔・교토테쓰도하쿠부쓰칸마에（철도박물관）,0,1,下
359300,樋爪口,樋爪口(南行),,ひづめぐち,Hizume-guchi,樋爪口,樋爪口,히즈메구치,0,1,伏
359400,樋爪口,樋爪口(北行),,ひづめぐち,Hizume-guchi,樋爪口,樋爪口,히즈메구치,0,1,伏
360300,上樋爪,上樋爪(南行),,かみひづめ,Kami-Hizume,上樋爪,上樋爪,가미히즈메,0,1,伏
360400,上樋爪,上樋爪(北行),,かみひづめ,Kami-Hizume,上樋爪,上樋爪,가미히즈메,0,1,伏
361300,樋爪町,樋爪町(南行),,ひづめちょう,Hizumecho,樋爪町,樋爪町,히즈메초,0,1,伏
361400,樋爪町,樋爪町(北行),,ひづめちょう,Hizumecho,樋爪町,樋爪町,히즈메초,0,1,伏
362300,水垂町,水垂町(南行),,みずたれちょう,Mizutarecho,水垂町,水垂町,미즈타레초,0,1,伏
362400,水垂町,水垂町(北行),,みずたれちょう,Mizutarecho,水垂町,水垂町,미즈타레초,0,1,伏
363300,宮前橋西詰,宮前橋西詰(南行),,みやまえばしにしづめ,Miyamaebashi Nishizume,宫前桥西诘（西侧）,宮前橋西詰（西側）,미야마에바시니시즈메,0,1,伏
363400,宮前橋西詰,宮前橋西詰(北行),,みやまえばしにしづめ,Miyamaebashi Nishizume,宫前桥西诘（西侧）,宮前橋西詰（西側）,미야마에바시니시즈메,0,1,伏
364300,久我御旅町,久我御旅町(南行),,こがおたびちょう,Koga Otabicho,久我御旅町,久我御旅町,고가오타비초,0,1,伏
364400,久我御旅町,久我御旅町(北行),,こがおたびちょう,Koga Otabicho,久我御旅町,久我御旅町,고가오타비초,0,1,伏
365300,神川小学校前,神川小学校前(南行),,かみかわしょうがっこうまえ,Kamikawa Shogakko-mae,神川小学校前,神川小學校前,가미카와쇼갓코마에,0,1,伏
365400,神川小学校前,神川小学校前(北行),,かみかわしょうがっこうまえ,Kamikawa Shogakko-mae,神川小学校前,神川小學校前,가미카와쇼갓코마에,0,1,伏
366300,下久我,下久我(南行),,しもこが,Shimo-Koga,下久我,下久我,시모코가,0,1,伏
366400,下久我,下久我(北行),,しもこが,Shimo-Koga,下久我,下久我,시모코가,0,1,伏
367100,菱川,菱川(東行),,ひしかわ,Hishikawa,菱川,菱川,히시카와,0,1,伏
367200,菱川,菱川(西行),,ひしかわ,Hishikawa,菱川,菱川,히시카와,0,1,伏
367300,菱川,菱川(南行),,ひしかわ,Hishikawa,菱川,菱川,히시카와,0,1,伏
367400,菱川,菱川(北行),,ひしかわ,Hishikawa,菱川,菱川,히시카와,0,1,伏
368100,七条壬生川,七条壬生川(東行),A,ななじょうみぶがわ,Nanajo Mibugawa,七条壬生川,七条壬生川,나나조미부가와,0,1,下
368200,七条壬生川,七条壬生川(西行),B,ななじょうみぶがわ,Nanajo Mibugawa,七条壬生川,七条壬生川,나나조미부가와,0,1,下
369100,七条千本,七条千本(東行),A,ななじょうせんぼん,Nanajo Senbon,七条千本,七条千本,나나조센본,0,1,下
369200,七条千本,七条千本(西行),,ななじょうせんぼん,Nanajo Senbon,七条千本,七条千本,나나조센본,0,1,下
370100,月読橋,月読橋(東行),,つきよみばし,Tsukiyomibashi,月读桥,月讀橋,쓰키요미바시,0,1,下
370200,月読橋,月読橋(西行),,つきよみばし,Tsukiyomibashi,月读桥,月讀橋,쓰키요미바시,0,1,下
371100,大門町,大門町(東行),,だいもんちょう,Daimoncho,大门町,大門町,다이몬초,0,1,右
371200,大門町,大門町(西行),,だいもんちょう,Daimoncho,大门町,大門町,다이몬초,0,1,右
372100,川勝寺,川勝寺(東行),,せんしょうじ,Senshoji,川胜寺,川勝寺,센쇼지,0,1,右
372200,川勝寺,川勝寺(西行),,せんしょうじ,Senshoji,川胜寺,川勝寺,센쇼지,0,1,右
373300,久我の杜,久我の杜(南行),,こがのもり,Koganomori,久我之杜,久我之杜,고가노모리,0,1,伏
373400,久我の杜,久我の杜(北行),,こがのもり,Koganomori,久我之杜,久我之杜,고가노모리,0,1,伏
374100,桂大橋,桂大橋(東行),,かつらおおはし,Katsura Ohashi,桂大桥,桂大橋,가쓰라오하시,1,2,右
374200,桂大橋,桂大橋(西行),,かつらおおはし,Katsura Ohashi,桂大桥,桂大橋,가쓰라오하시,1,2,右
375100,桂離宮前,桂離宮前(東行),,かつらりきゅうまえ,Katsurarikyu-mae (Katsura Imperial Villa),桂离宫前,桂離宮前,가쓰라리큐마에,1,2,西
375200,桂離宮前,桂離宮前(西行),,かつらりきゅうまえ,Katsurarikyu-mae (Katsura Imperial Villa),桂离宫前,桂離宮前,가쓰라리큐마에,1,2,西
376100,下桂,下桂(東行),,しもかつら,Shimo-Katsura,下桂,下桂,시모카쓰라,1,2,西
376200,下桂,下桂(西行),,しもかつら,Shimo-Katsura,下桂,下桂,시모카쓰라,1,2,西
376310,下桂,下桂(南行南詰),,しもかつら,Shimo-Katsura,下桂,下桂,시모카쓰라,1,2,西
376320,下桂,下桂(南行北詰),,しもかつら,Shimo-Katsura,下桂,下桂,시모카쓰라,1,2,西
376410,下桂,下桂(北行北詰),,しもかつら,Shimo-Katsura,下桂,下桂,시모카쓰라,1,2,西
376420,下桂,下桂(北行南詰),,しもかつら,Shimo-Katsura,下桂,下桂,시모카쓰라,1,2,西
377100,桂消防署前,桂消防署前(東行),,かつらしょうぼうしょまえ,Katsura Shobosho-mae,桂消防署前,桂消防署前,가쓰라쇼보쇼마에,1,2,西
377200,桂消防署前,桂消防署前(西行),,かつらしょうぼうしょまえ,Katsura Shobosho-mae,桂消防署前,桂消防署前,가쓰라쇼보쇼마에,1,2,西
378300,桂駅東口,桂駅東口(2),2,かつらえきひがしぐち,Katsura Station (Higashiguchi),桂站东口,桂車站東口,가쓰라에키히가시구치,1,2,西
378400,桂駅東口,桂駅東口(1),1,かつらえきひがしぐち,Katsura Station (Higashiguchi),桂站东口,桂車站東口,가쓰라에키히가시구치,1,2,西
379200,川島町,川島町(バス停),,かわしまちょう,Kawashimacho,川岛町,川島町,가와시마초,1,2,西
380100,樫原,樫原(東行),,かたぎはら,Katagihara,樫原,樫原,가타기하라,1,2,西
380200,樫原,樫原(西行),,かたぎはら,Katagihara,樫原,樫原,가타기하라,1,2,西
380300,樫原,樫原(南行),,かたぎはら,Katagihara,樫原,樫原,가타기하라,1,2,西
380400,樫原,樫原(北行),,かたぎはら,Katagihara,樫原,樫原,가타기하라,1,2,西
381100,公会堂前,公会堂前(バス停),,こうかいどうまえ,Kokaido-mae,公会堂前,公會堂前,고카이도마에,1,2,西
382100,三ノ宮,三ノ宮(東行),,さんのみや,Sannomiya,三之宫,三之宮,산노미야,1,2.5,西
382200,三ノ宮,三ノ宮(西行),,さんのみや,Sannomiya,三之宫,三之宮,산노미야,1,2.5,西
383300,中久世一丁目,中久世一丁目(南行),,なかくぜいっちょうめ,Nakakuze 1(ichi)-chome,中久世一丁目,中久世一丁目,나카쿠제잇초메,1,2,南
383400,中久世一丁目,中久世一丁目(北行),,なかくぜいっちょうめ,Nakakuze 1(ichi)-chome,中久世一丁目,中久世一丁目,나카쿠제잇초메,1,2,南
384310,油小路丹波橋・アクト京都前,油小路丹波橋・アクト京都前(南行南詰),B,あぶらのこうじたんばばし・あくときょうとまえ,Aburanokoji Tanbabashi ACT Kyoto-mae,油小路丹波桥 ACT京都前,油小路丹波橋 ACT京都前,아부라노코지탄바바시 아쿠토쿄토마에,1,1,伏
384320,油小路丹波橋・アクト京都前,油小路丹波橋・アクト京都前(南行北詰),,あぶらのこうじたんばばし・あくときょうとまえ,Aburanokoji Tanbabashi ACT Kyoto-mae,油小路丹波桥 ACT京都前,油小路丹波橋 ACT京都前,아부라노코지탄바바시 아쿠토쿄토마에,1,1,伏
384400,油小路丹波橋・アクト京都前,油小路丹波橋・アクト京都前(北行),C,あぶらのこうじたんばばし・あくときょうとまえ,Aburanokoji Tanbabashi ACT Kyoto-mae,油小路丹波桥 ACT京都前,油小路丹波橋 ACT京都前,아부라노코지탄바바시 아쿠토쿄토마에,1,1,伏
385100,城南宮東口,城南宮東口(東行),,じょうなんぐうひがしぐち,Jonangu Higashiguchi,城南宫东口,城南宮東口,조난구히가시구치,0,1,伏
385300,城南宮東口,城南宮東口(南行),,じょうなんぐうひがしぐち,Jonangu Higashiguchi,城南宫东口,城南宮東口,조난구히가시구치,0,1,伏
385400,城南宮東口,城南宮東口(北行),,じょうなんぐうひがしぐち,Jonangu Higashiguchi,城南宫东口,城南宮東口,조난구히가시구치,0,1,伏
386300,桂坂口,桂坂口(南行),,かつらざかぐち,Katsurazaka-guchi,桂坂口,桂坂口,가쓰라자카구치,1,3,西
386400,桂坂口,桂坂口(北行),,かつらざかぐち,Katsurazaka-guchi,桂坂口,桂坂口,가쓰라자카구치,1,3,西
387300,中桂,中桂(南行),,なかかつら,Naka-Katsura,中桂,中桂,나카카쓰라,1,2,西
387400,中桂,中桂(北行),,なかかつら,Naka-Katsura,中桂,中桂,나카카쓰라,1,2,西
388300,桂徳大寺,桂徳大寺(南行),A,かつらとくだいじ,Katsura Tokudaiji,桂德大寺,桂徳大寺,가쓰라토쿠다이지,1,2,西
388400,桂徳大寺,桂徳大寺(北行),,かつらとくだいじ,Katsura Tokudaiji,桂德大寺,桂徳大寺,가쓰라토쿠다이지,1,2,西
389300,上桂東ノ口,上桂東ノ口(南行),,かみかつらひがしのくち,Kamikatsura Higashinokuchi,上桂东之口,上桂東之口,가미카쓰라히가시노쿠치,1,2,西
389400,上桂東ノ口,上桂東ノ口(北行),B,かみかつらひがしのくち,Kamikatsura Higashinokuchi,上桂东之口,上桂東之口,가미카쓰라히가시노쿠치,1,2,西
390300,竹田内畑町,竹田内畑町(南行),,たけだうちはたちょう,Takeda Uchihatacho,竹田内畑町,竹田內畑町,다케다우치하타초,0,1,伏
390400,竹田内畑町,竹田内畑町(北行),,たけだうちはたちょう,Takeda Uchihatacho,竹田内畑町,竹田內畑町,다케다우치하타초,0,1,伏
391300,烏丸札ノ辻,烏丸札ノ辻(南行),,からすまふだのつじ,Karasuma Fudanotsuji,乌丸札之辻,烏丸札之辻,가라스마후다노쓰지,0,1,南
391400,烏丸札ノ辻,烏丸札ノ辻(北行),,からすまふだのつじ,Karasuma Fudanotsuji,乌丸札之辻,烏丸札之辻,가라스마후다노쓰지,0,1,南
392100,丸太町京阪前,丸太町京阪前(東行),A,まるたまちけいはんまえ,Marutamachi Keihan-mae,丸太町京阪前,丸太町京阪前,마루타마치케이한마에,0,1,左
392200,丸太町京阪前,丸太町京阪前(西行),B,まるたまちけいはんまえ,Marutamachi Keihan-mae,丸太町京阪前,丸太町京阪前,마루타마치케이한마에,0,1,左
393100,川端二条,川端二条(東行),,かわばたにじょう,Kawabata Nijo,川端二条,川端二条,가와바타니조,0,1,左
393200,川端二条,川端二条(西行),,かわばたにじょう,Kawabata Nijo,川端二条,川端二条,가와바타니조,0,1,左
394300,千本鞍馬口,千本鞍馬口(南行),,せんぼんくらまぐち,Senbon Kuramaguchi,千本鞍马口,千本鞍馬口,센본쿠라마구치,0,1,北
394400,千本鞍馬口,千本鞍馬口(北行),,せんぼんくらまぐち,Senbon Kuramaguchi,千本鞍马口,千本鞍馬口,센본쿠라마구치,0,1,北
395300,乾隆校前,乾隆校前(南行),,けんりゅうこうまえ,Kenryuko-mae,乾隆校前,乾隆校前,겐류코마에,0,1,上
395400,乾隆校前,乾隆校前(北行),,けんりゅうこうまえ,Kenryuko-mae,乾隆校前,乾隆校前,겐류코마에,0,1,上
396300,千本上立売,千本上立売(南行),,せんぼんかみだちうり,Senbon Kamidachiuri,千本上立卖,千本上立賣,센본카미다치우리,0,1,上
396400,千本上立売,千本上立売(北行),,せんぼんかみだちうり,Senbon Kamidachiuri,千本上立卖,千本上立賣,센본카미다치우리,0,1,上
397100,今出川浄福寺,今出川浄福寺(東行),,いまでがわじょうふくじ,Imadegawa Jofukuji,今出川净福寺,今出川淨福寺,이마데가와조후쿠지,0,1,上
397200,今出川浄福寺,今出川浄福寺(西行),,いまでがわじょうふくじ,Imadegawa Jofukuji,今出川净福寺,今出川淨福寺,이마데가와조후쿠지,0,1,上
398100,青少年科学センター前,青少年科学センター前(東行),A,せいしょうねんかがくせんたーまえ,Seishonen Kagaku Center-mae,青少年科学Center前（青少年科学中心）,青少年科學Center前（青少年科學中心）,세이쇼넨카가쿠센타마에,0,1,伏
398200,青少年科学センター前,青少年科学センター前(西行),B,せいしょうねんかがくせんたーまえ,Seishonen Kagaku Center-mae,青少年科学Center前（青少年科学中心）,青少年科學Center前（青少年科學中心）,세이쇼넨카가쿠센타마에,0,1,伏
400100,智恵光院中立売,智恵光院中立売(東行),,ちえこういんなかだちうり,Chiekoin Nakadachiuri,智恵光院中立卖,智恵光院中立賣,지에코우인나카다치우리,0,1,上
400200,智恵光院中立売,智恵光院中立売(西行),,ちえこういんなかだちうり,Chiekoin Nakadachiuri,智恵光院中立卖,智恵光院中立賣,지에코우인나카다치우리,0,1,上
401300,桂滝川町,桂滝川町(南行),,かつらたきがわちょう,Katsura Takigawacho,桂泷川町,桂瀧川町,가쓰라타키가와초,1,2,西
401400,桂滝川町,桂滝川町(北行),,かつらたきがわちょう,Katsura Takigawacho,桂泷川町,桂瀧川町,가쓰라타키가와초,1,2,西
402100,下津林六反田,下津林六反田(東行),,しもつばやしろくたんだ,Shimotsubayashi Rokutanda,下津林六反田,下津林六反田,시모쓰바야시로쿠탄다,1,2,西
402200,下津林六反田,下津林六反田(西行),,しもつばやしろくたんだ,Shimotsubayashi Rokutanda,下津林六反田,下津林六反田,시모쓰바야시로쿠탄다,1,2,西
403100,西大路御池,西大路御池(C),C,にしおおじおいけ,Nishioji Oike,西大路御池,西大路御池,니시오지오이케,0,1,中
403300,西大路御池,西大路御池(A),A,にしおおじおいけ,Nishioji Oike,西大路御池,西大路御池,니시오지오이케,0,1,中
403400,西大路御池,西大路御池(B),B,にしおおじおいけ,Nishioji Oike,西大路御池,西大路御池,니시오지오이케,0,1,中
404300,太子道,太子道(南行),,たいしみち,Taishimichi,太子道,太子道,다이시미치,0,1,中
404410,太子道,太子道(北行北詰),,たいしみち,Taishimichi,太子道,太子道,다이시미치,0,1,中
404420,太子道,太子道(北行南詰),,たいしみち,Taishimichi,太子道,太子道,다이시미치,0,1,中
405100,京都先端科学大学前,京都先端科学大学前(東行),A,きょうとせんたんかがくだいがくまえ,Kyoto Sentankagaku Daigaku-mae (Kyoto University of Advanced Science),京都先端科学大学前,京都先端科學大學前,교토센탄카가쿠다이가쿠마에,0,1,右
405200,京都先端科学大学前,京都先端科学大学前(西行),,きょうとせんたんかがくだいがくまえ,Kyoto Sentankagaku Daigaku-mae (Kyoto University of Advanced Science),京都先端科学大学前,京都先端科學大學前,교토센탄카가쿠다이가쿠마에,0,1,右
406100,山ノ内御池,山ノ内御池(東行),A,やまのうちおいけ,Yamanouchi Oike,山之内御池,山之內御池,야마노우치오이케,0,1,右
406200,山ノ内御池,山ノ内御池(西行),,やまのうちおいけ,Yamanouchi Oike,山之内御池,山之內御池,야마노우치오이케,0,1,右
407100,西小路御池,西小路御池(東行),,にしこうじおいけ,Nishikoji Oike,西小路御池,西小路御池,니시코우지오이케,0,1,中
407200,西小路御池,西小路御池(西行),B,にしこうじおいけ,Nishikoji Oike,西小路御池,西小路御池,니시코우지오이케,0,1,中
408300,牛ヶ瀬,牛ヶ瀬(南行),A,うしがせ,Ushigase,牛濑,牛瀨,우시가세,1,2,西
408400,牛ヶ瀬,牛ヶ瀬(北行),B,うしがせ,Ushigase,牛濑,牛瀨,우시가세,1,2,西
409100,西ノ京藤ノ木町,西ノ京藤ノ木町(東行),,にしのきょうふじのきちょう,Nishinokyo Fujinokicho,西之京藤之木町,西之京藤之木町,니시노쿄후지노키초,0,1,右
409200,西ノ京藤ノ木町,西ノ京藤ノ木町(西行),,にしのきょうふじのきちょう,Nishinokyo Fujinokicho,西之京藤之木町,西之京藤之木町,니시노쿄후지노키초,0,1,右
410100,西ノ京塚本町,西ノ京塚本町(東行),,にしのきょうつかもとちょう,Nishinokyo Tsukamotocho,西之京冢本町,西之京塚本町,니시노쿄쓰카모토초,0,1,中
410200,西ノ京塚本町,西ノ京塚本町(西行),,にしのきょうつかもとちょう,Nishinokyo Tsukamotocho,西之京冢本町,西之京塚本町,니시노쿄쓰카모토초,0,1,中
411100,南広町,南広町(東行),A,みなみひろまち,Minamihiromachi,南广町,南廣町,미나미히로마치,0,1,右
411200,南広町,南広町(西行),B,みなみひろまち,Minamihiromachi,南广町,南廣町,미나미히로마치,0,1,右
412100,日新電機前,日新電機前(東行),A,にっしんでんきまえ,Nisshindenki-mae,日新电机前,日新電機前,닛신덴키마에,0,1,右
412200,日新電機前,日新電機前(西行),,にっしんでんきまえ,Nisshindenki-mae,日新电机前,日新電機前,닛신덴키마에,0,1,右
413100,梅津段町,梅津段町(A),A,うめづだんまち,Umezu Danmachi,梅津段町,梅津段町,우메즈단마치,0,1,右
413200,梅津段町,梅津段町(B),B,うめづだんまち,Umezu Danmachi,梅津段町,梅津段町,우메즈단마치,0,1,右
413300,梅津段町,梅津段町(C),C,うめづだんまち,Umezu Danmachi,梅津段町,梅津段町,우메즈단마치,0,1,右
413400,梅津段町,梅津段町(D),D,うめづだんまち,Umezu Danmachi,梅津段町,梅津段町,우메즈단마치,0,1,右
414100,長福寺道,長福寺道(東行),,ちょうふくじみち,Chofukuji-michi,长福寺道,長福寺道,조후쿠지미치,0,1,右
414200,長福寺道,長福寺道(西行),,ちょうふくじみち,Chofukuji-michi,长福寺道,長福寺道,조후쿠지미치,0,1,右
415100,梅津西浦町,梅津西浦町(東行),,うめづにしうらちょう,Umezu Nishiuracho,梅津西浦町,梅津西浦町,우메즈니시우라초,0,1,右
415200,梅津西浦町,梅津西浦町(西行),,うめづにしうらちょう,Umezu Nishiuracho,梅津西浦町,梅津西浦町,우메즈니시우라초,0,1,右
416100,梅宮大社前,梅宮大社前(東行),,うめのみやたいしゃまえ,Umenomiya Taisha-mae (Umenomiya-taisha Shrine),梅宫大社前,梅宮大社前,우메노미야타이샤마에,0,1,右
416200,梅宮大社前,梅宮大社前(西行),,うめのみやたいしゃまえ,Umenomiya Taisha-mae (Umenomiya-taisha Shrine),梅宫大社前,梅宮大社前,우메노미야타이샤마에,0,1,右
417100,松尾橋,松尾橋(東行),,まつおばし,Matsuobashi,松尾桥,松尾橋,마쓰오바시,0,1,右
417200,松尾橋,松尾橋(西行),,まつおばし,Matsuobashi,松尾桥,松尾橋,마쓰오바시,0,1,右
418310,松尾大社前,松尾大社前(南行南詰),,まつおたいしゃまえ,Matsuo Taisha-mae (Matsuo-taisha Shrine),松尾大社前,松尾大社前,마쓰오타이샤마에,0,1,西
418320,松尾大社前,松尾大社前(南行北詰),,まつおたいしゃまえ,Matsuo Taisha-mae (Matsuo-taisha Shrine),松尾大社前,松尾大社前,마쓰오타이샤마에,0,1,西
418410,松尾大社前,松尾大社前(北行北詰),,まつおたいしゃまえ,Matsuo Taisha-mae (Matsuo-taisha Shrine),松尾大社前,松尾大社前,마쓰오타이샤마에,0,1,西
418420,松尾大社前,松尾大社前(北行南詰),,まつおたいしゃまえ,Matsuo Taisha-mae (Matsuo-taisha Shrine),松尾大社前,松尾大社前,마쓰오타이샤마에,0,1,西
419300,内田町,内田町(南行),,うちだちょう,Uchidacho,内田町,內田町,우치다초,0,1,西
419400,内田町,内田町(北行),,うちだちょう,Uchidacho,内田町,內田町,우치다초,0,1,西
420300,谷ヶ辻町,谷ヶ辻町(南行),,たにがつじちょう,Tanigatsujicho,谷辻町,谷辻町,다니가쓰지초,0,1,西
420400,谷ヶ辻町,谷ヶ辻町(北行),,たにがつじちょう,Tanigatsujicho,谷辻町,谷辻町,다니가쓰지초,0,1,西
421300,阪急嵐山駅前,阪急嵐山駅前(南行),,はんきゅうあらしやまえきまえ,Hankyu Arashiyama Station,阪急岚山站前,阪急嵐山車站前,한큐아라시야마에키마에,0,1,西
421400,阪急嵐山駅前,阪急嵐山駅前(北行),,はんきゅうあらしやまえきまえ,Hankyu Arashiyama Station,阪急岚山站前,阪急嵐山車站前,한큐아라시야마에키마에,0,1,西
422300,嵐山公園（渡月橋南詰）,嵐山公園（渡月橋南詰）(南行),,あらしやまこうえん（とげつきょうみなみづめ）,Arashiyama Koen (Togetsukyo Minamizume),岚山公园（渡月桥南诘）,嵐山公園（渡月橋南詰）,아라시야마코엔（도게쓰교미나미즈메）,0,1,西
422400,嵐山公園（渡月橋南詰）,嵐山公園（渡月橋南詰）(北行),,あらしやまこうえん（とげつきょうみなみづめ）,Arashiyama Koen (Togetsukyo Minamizume),岚山公园（渡月桥南诘）,嵐山公園（渡月橋南詰）,아라시야마코엔（도게쓰교미나미즈메）,0,1,西
423300,嵐山天龍寺前（嵐電嵐山駅）,嵐山天龍寺前（嵐電嵐山駅）(南行),A,あらしやまてんりゅうじまえ（らんでんあらしやまえき）,Arashiyama Tenryuji-mae (Tenryuji Temple / Randen Arashiyama Station),岚山天龙寺前（岚电岚山站）,嵐山天龍寺前（嵐電嵐山車站）,아라시야마텐류지마에（란덴아라시야마역）,0,1,右
423400,嵐山天龍寺前（嵐電嵐山駅）,嵐山天龍寺前（嵐電嵐山駅）(北行),,あらしやまてんりゅうじまえ（らんでんあらしやまえき）,Arashiyama Tenryuji-mae (Tenryuji Temple / Randen Arashiyama Station),岚山天龙寺前（岚电岚山站）,嵐山天龍寺前（嵐電嵐山車站）,아라시야마텐류지마에（란덴아라시야마역）,0,1,右
424300,野々宮,野々宮(南行),,ののみや,Nonomiya,野野宫,野野宮,노노미야,0,1,右
424400,野々宮,野々宮(北行),,ののみや,Nonomiya,野野宫,野野宮,노노미야,0,1,右
425100,嵯峨小学校前,嵯峨小学校前(東行),,さがしょうがっこうまえ,Saga Shogakko-mae,嵯峨小学校前,嵯峨小學校前,사가쇼갓코마에,0,1,右
425200,嵯峨小学校前,嵯峨小学校前(西行),,さがしょうがっこうまえ,Saga Shogakko-mae,嵯峨小学校前,嵯峨小學校前,사가쇼갓코마에,0,1,右
425300,嵯峨小学校前,嵯峨小学校前(南行),,さがしょうがっこうまえ,Saga Shogakko-mae,嵯峨小学校前,嵯峨小學校前,사가쇼갓코마에,0,1,右
426300,嵯峨釈迦堂前,嵯峨釈迦堂前(南行),,さがしゃかどうまえ,Saga Shakado-mae,嵯峨释迦堂前,嵯峨釋迦堂前,사가샤카도마에,0,1,右
426400,嵯峨釈迦堂前,嵯峨釈迦堂前(北行),,さがしゃかどうまえ,Saga Shakado-mae,嵯峨释迦堂前,嵯峨釋迦堂前,사가샤카도마에,0,1,右
427100,小渕町,小渕町(東行),,こぶちちょう,Kobuchicho,小渊町,小渕町,고부치초,0,1,右
427200,小渕町,小渕町(西行),,こぶちちょう,Kobuchicho,小渊町,小渕町,고부치초,0,1,右
428300,大覚寺,大覚寺(バス停),,だいかくじ,Daikakuji (Daikakuji Temple),大觉寺,大覺寺,다이카쿠지,0,1,右
429100,光華女子学園前,光華女子学園前(東行),,こうかじょしがくえんまえ,Koka Joshigakuen-mae,光华女子学园前,光華女子學園前,고카조시가쿠엔마에,0,1,右
429200,光華女子学園前,光華女子学園前(西行),,こうかじょしがくえんまえ,Koka Joshigakuen-mae,光华女子学园前,光華女子學園前,고카조시가쿠엔마에,0,1,右
429300,光華女子学園前,光華女子学園前(南行),,こうかじょしがくえんまえ,Koka Joshigakuen-mae,光华女子学园前,光華女子學園前,고카조시가쿠엔마에,0,1,右
429400,光華女子学園前,光華女子学園前(北行),D,こうかじょしがくえんまえ,Koka Joshigakuen-mae,光华女子学园前,光華女子學園前,고카조시가쿠엔마에,0,1,右
430100,西京極運動公園前,西京極運動公園前(東行),,にしきょうごくうんどうこうえんまえ,Nishikyogoku Undokoen-mae (Nishikyogoku Athletic and Sports Park),西京极运动公园前,西京極運動公園前,니시쿄고쿤도코엔마에,0,1,右
430200,西京極運動公園前,西京極運動公園前(西行),,にしきょうごくうんどうこうえんまえ,Nishikyogoku Undokoen-mae (Nishikyogoku Athletic and Sports Park),西京极运动公园前,西京極運動公園前,니시쿄고쿤도코엔마에,0,1,右
431100,西京極,西京極(東行),,にしきょうごく,Nishikyogoku,西京极,西京極,니시쿄고쿠,0,1.5,右
431200,西京極,西京極(西行),,にしきょうごく,Nishikyogoku,西京极,西京極,니시쿄고쿠,0,1.5,右
431400,西京極,西京極(北行),,にしきょうごく,Nishikyogoku,西京极,西京極,니시쿄고쿠,0,1.5,右
432100,西大橋西詰,西大橋西詰(東行),,にしおおはしにしづめ,Nishiohashi Nishizume,西大桥西诘（西侧）,西大橋西詰（西側）,니시오하시니시즈메,1,2,西
432200,西大橋西詰,西大橋西詰(西行),,にしおおはしにしづめ,Nishiohashi Nishizume,西大桥西诘（西侧）,西大橋西詰（西側）,니시오하시니시즈메,1,2,西
433100,上桂御正町,上桂御正町(東行),,かみかつらみしょうちょう,Kamikatsura Mishocho,上桂御正町,上桂御正町,가미카쓰라미쇼초,1,2,西
433200,上桂御正町,上桂御正町(西行),,かみかつらみしょうちょう,Kamikatsura Mishocho,上桂御正町,上桂御正町,가미카쓰라미쇼초,1,2,西
434100,上桂前田町,上桂前田町(東行),,かみかつらまえだちょう,Kamikatsura Maedacho,上桂前田町,上桂前田町,가미카쓰라마에다초,1,2,西
434200,上桂前田町,上桂前田町(西行),,かみかつらまえだちょう,Kamikatsura Maedacho,上桂前田町,上桂前田町,가미카쓰라마에다초,1,2,西
435100,平和台町,平和台町(東行),,へいわだいちょう,Heiwadaicho,平和台町,平和台町,헤이와다이초,1,2,西
435200,平和台町,平和台町(西行),,へいわだいちょう,Heiwadaicho,平和台町,平和台町,헤이와다이초,1,2,西
436100,千代原口,千代原口(東行),,ちよはらぐち,Chiyoharaguchi,千代原口,千代原口,지요하라구치,1,2,西
436200,千代原口,千代原口(西行),,ちよはらぐち,Chiyoharaguchi,千代原口,千代原口,지요하라구치,1,2,西
436300,千代原口,千代原口(南行),,ちよはらぐち,Chiyoharaguchi,千代原口,千代原口,지요하라구치,1,2,西
436400,千代原口,千代原口(北行),,ちよはらぐち,Chiyoharaguchi,千代原口,千代原口,지요하라구치,1,2,西
437300,桂中学前,桂中学前(南行),,かつらちゅうがくまえ,Katsura Chugaku-mae,桂中学前,桂中學前,가쓰라추가쿠마에,1,2,西
437400,桂中学前,桂中学前(北行),,かつらちゅうがくまえ,Katsura Chugaku-mae,桂中学前,桂中學前,가쓰라추가쿠마에,1,2,西
438310,松尾大利町,松尾大利町(南行南詰),,まつおだいりちょう,Matsuo Dairicho,松尾大利町,松尾大利町,마쓰오다이리초,1,2,西
438320,松尾大利町,松尾大利町(南行北詰),,まつおだいりちょう,Matsuo Dairicho,松尾大利町,松尾大利町,마쓰오다이리초,1,2,西
438410,松尾大利町,松尾大利町(北行北詰),,まつおだいりちょう,Matsuo Dairicho,松尾大利町,松尾大利町,마쓰오다이리초,1,2,西
438420,松尾大利町,松尾大利町(北行南詰),,まつおだいりちょう,Matsuo Dairicho,松尾大利町,松尾大利町,마쓰오다이리초,1,2,西
439300,鈴虫寺・苔寺道,鈴虫寺・苔寺道(南行),,すずむしでら・こけでらみち,Suzumushi-dera / Kokedera-michi,铃虫寺・苔寺道,鈴虫寺・苔寺道,스즈무시데라・고케데라미치,0,1.5,西
439400,鈴虫寺・苔寺道,鈴虫寺・苔寺道(北行),,すずむしでら・こけでらみち,Suzumushi-dera / Kokedera-michi,铃虫寺・苔寺道,鈴虫寺・苔寺道,스즈무시데라・고케데라미치,0,1.5,西
440300,松室北河原町,松室北河原町(南行),A,まつむろきたかわらちょう,Matsumuro Kitakawaracho,松室北河原町,松室北河原町,마쓰무로키타카와라초,0,1,西
440400,松室北河原町,松室北河原町(北行),,まつむろきたかわらちょう,Matsumuro Kitakawaracho,松室北河原町,松室北河原町,마쓰무로키타카와라초,0,1,西
441300,西京区役所前,西京区役所前(南行),,にしきょうくやくしょまえ,Nishikyo Kuyakusho-mae (Nishikyo Ward Office),西京区役所前（西京区政府）,西京區役所前（西京區公所）,니시쿄쿠야쿠쇼마에（니시쿄 구청）,1,2,西
441400,西京区役所前,西京区役所前(北行),,にしきょうくやくしょまえ,Nishikyo Kuyakusho-mae (Nishikyo Ward Office),西京区役所前（西京区政府）,西京區役所前（西京區公所）,니시쿄쿠야쿠쇼마에（니시쿄 구청）,1,2,西
443300,一乗寺高槻町,一乗寺高槻町(南行),,いちじょうじたかつきちょう,Ichijoji Takatsukicho,一乗寺高槻町,一乗寺高槻町,이치조지타카쓰키초,0,1,左
443400,一乗寺高槻町,一乗寺高槻町(北行),,いちじょうじたかつきちょう,Ichijoji Takatsukicho,一乗寺高槻町,一乗寺高槻町,이치조지타카쓰키초,0,1,左
444300,一乗寺赤ノ宮町,一乗寺赤ノ宮町(南行),A,いちじょうじあかのみやちょう,Ichijoji Akanomiyacho,一乗寺赤之宫町,一乗寺赤之宮町,이치조지아카노미야초,0,1,左
444400,一乗寺赤ノ宮町,一乗寺赤ノ宮町(北行),,いちじょうじあかのみやちょう,Ichijoji Akanomiyacho,一乗寺赤之宫町,一乗寺赤之宮町,이치조지아카노미야초,0,1,左
445100,高野,高野(A),A,たかの,Takano,高野,高野,다카노,0,1,左
445200,高野,高野(C),C,たかの,Takano,高野,高野,다카노,0,1,左
445300,高野,高野(B),B,たかの,Takano,高野,高野,다카노,0,1,左
445400,高野,高野(D),D,たかの,Takano,高野,高野,다카노,0,1,左
446100,高野橋東詰,高野橋東詰(東行),A,たかのばしひがしづめ,Takanobashi Higashizume,高野桥东诘（东侧）,高野橋東詰（東側）,다카노바시히가시즈메,0,1,左
446200,高野橋東詰,高野橋東詰(西行),B,たかのばしひがしづめ,Takanobashi Higashizume,高野桥东诘（东侧）,高野橋東詰（東側）,다카노바시히가시즈메,0,1,左
447100,高木町,高木町(東行),A,たかぎちょう,Takagicho,高木町,高木町,다카기초,0,1,左
447200,高木町,高木町(西行),B,たかぎちょう,Takagicho,高木町,高木町,다카기초,0,1,左
448100,下鴨東本町,下鴨東本町(東行),A,しもがもひがしほんまち,Shimogamo Higashihonmachi,下鸭东本町,下鴨東本町,시모가모히가시혼마치,0,1,左
448200,下鴨東本町,下鴨東本町(西行),,しもがもひがしほんまち,Shimogamo Higashihonmachi,下鸭东本町,下鴨東本町,시모가모히가시혼마치,0,1,左
449100,一乗寺青城町,一乗寺青城町(東行),,いちじょうじあおしろちょう,Ichijoji Aoshirocho,一乗寺青城町,一乗寺青城町,이치조지아오시로초,0,1,左
449200,一乗寺青城町,一乗寺青城町(西行),,いちじょうじあおしろちょう,Ichijoji Aoshirocho,一乗寺青城町,一乗寺青城町,이치조지아오시로초,0,1,左
450100,一乗寺北大丸町,一乗寺北大丸町(東行),,いちじょうじきたおおまるちょう,Ichijoji Kitaomarucho,一乗寺北大丸町,一乗寺北大丸町,이치조지키타오마루초,0,1,左
450300,一乗寺北大丸町,一乗寺北大丸町(南行),,いちじょうじきたおおまるちょう,Ichijoji Kitaomarucho,一乗寺北大丸町,一乗寺北大丸町,이치조지키타오마루초,0,1,左
451100,田中大久保町,田中大久保町(B),B,たなかおおくぼちょう,Tanaka Okubocho,田中大久保町,田中大久保町,다나카오쿠보초,0,1,左
451300,田中大久保町,田中大久保町(A),A,たなかおおくぼちょう,Tanaka Okubocho,田中大久保町,田中大久保町,다나카오쿠보초,0,1,左
451400,田中大久保町,田中大久保町(C),C,たなかおおくぼちょう,Tanaka Okubocho,田中大久保町,田中大久保町,다나카오쿠보초,0,1,左
452300,叡電元田中,叡電元田中(南行),A,えいでんもとたなか,Eiden Mototanaka,睿电元田中,叡電元田中,에이덴모토타나카,0,1,左
452400,叡電元田中,叡電元田中(北行),B,えいでんもとたなか,Eiden Mototanaka,睿电元田中,叡電元田中,에이덴모토타나카,0,1,左
453300,京大正門前,京大正門前(南行),A,きょうだいせいもんまえ,Kyodai Seimon-mae (Kyoto University),京大正门前（京都大学）,京大正門前（京都大學）,교다이세이몬마에（교토대학）,0,1,左
453400,京大正門前,京大正門前(北行),B,きょうだいせいもんまえ,Kyodai Seimon-mae (Kyoto University),京大正门前（京都大学）,京大正門前（京都大學）,교다이세이몬마에（교토대학）,0,1,左
454300,近衛通,近衛通(南行),,このえどおり,Konoedori,近卫通,近衛通,고노에도오리,0,1,左
454400,近衛通,近衛通(北行),,このえどおり,Konoedori,近卫通,近衛通,고노에도오리,0,1,左
455110,熊野神社前,熊野神社前(B),B,くまのじんじゃまえ,Kumano Jinja-mae (Kumano-jinja Shrine),熊野神社前,熊野神社前,구마노진자마에,0,1,左
455120,熊野神社前,熊野神社前(E),E,くまのじんじゃまえ,Kumano Jinja-mae (Kumano-jinja Shrine),熊野神社前,熊野神社前,구마노진자마에,0,1,左
455210,熊野神社前,熊野神社前(D),D,くまのじんじゃまえ,Kumano Jinja-mae (Kumano-jinja Shrine),熊野神社前,熊野神社前,구마노진자마에,0,1,左
455220,熊野神社前,熊野神社前(C),C,くまのじんじゃまえ,Kumano Jinja-mae (Kumano-jinja Shrine),熊野神社前,熊野神社前,구마노진자마에,0,1,左
455300,熊野神社前,熊野神社前(A),A,くまのじんじゃまえ,Kumano Jinja-mae (Kumano-jinja Shrine),熊野神社前,熊野神社前,구마노진자마에,0,1,左
455400,熊野神社前,熊野神社前(F),F,くまのじんじゃまえ,Kumano Jinja-mae (Kumano-jinja Shrine),熊野神社前,熊野神社前,구마노진자마에,0,1,左
456100,東山二条・岡崎公園口,東山二条・岡崎公園口(C),C,ひがしやまにじょう・おかざきこうえんぐち,Higashiyama Nijo / Okazaki Koen-guchi,东山二条・冈崎公园口,東山二条・岡崎公園口,히가시야마니조・오카자키코엔구치,0,1,左
456200,東山二条・岡崎公園口,東山二条・岡崎公園口(B),B,ひがしやまにじょう・おかざきこうえんぐち,Higashiyama Nijo / Okazaki Koen-guchi,东山二条・冈崎公园口,東山二条・岡崎公園口,히가시야마니조・오카자키코엔구치,0,1,左
456300,東山二条・岡崎公園口,東山二条・岡崎公園口(A),A,ひがしやまにじょう・おかざきこうえんぐち,Higashiyama Nijo / Okazaki Koen-guchi,东山二条・冈崎公园口,東山二条・岡崎公園口,히가시야마니조・오카자키코엔구치,0,1,左
456400,東山二条・岡崎公園口,東山二条・岡崎公園口(D),D,ひがしやまにじょう・おかざきこうえんぐち,Higashiyama Nijo / Okazaki Koen-guchi,东山二条・冈崎公园口,東山二条・岡崎公園口,히가시야마니조・오카자키코엔구치,0,1,左
457300,西京極午塚町,西京極午塚町(南行),,にしきょうごくうまつかちょう,Nishikyogoku Umatsukacho,西京极午冢町,西京極午塚町,니시쿄고쿠우마쓰카초,0,1,右
457400,西京極午塚町,西京極午塚町(北行),,にしきょうごくうまつかちょう,Nishikyogoku Umatsukacho,西京极午冢町,西京極午塚町,니시쿄고쿠우마쓰카초,0,1,右
458100,中ノ橋五条,中ノ橋五条(東行),,なかのはしごじょう,Nakanohashi Gojo,中之桥五条,中之橋五条,나카노하시고조,0,1,右
458200,中ノ橋五条,中ノ橋五条(西行),,なかのはしごじょう,Nakanohashi Gojo,中之桥五条,中之橋五条,나카노하시고조,0,1,右
459100,京都リサーチパーク前,京都リサーチパーク前(東行),,きょうとりさーちぱーくまえ,Kyoto Research Park-mae,京都Research Park前（京都研究园）,京都Research Park前（京都研究園區）,교토리사치파쿠마에,0,1,下
459200,京都リサーチパーク前,京都リサーチパーク前(西行),,きょうとりさーちぱーくまえ,Kyoto Research Park-mae,京都Research Park前（京都研究园）,京都Research Park前（京都研究園區）,교토리사치파쿠마에,0,1,下
460100,五条壬生川,五条壬生川(東行),,ごじょうみぶがわ,Gojo Mibugawa,五条壬生川,五条壬生川,고조미부가와,0,1,下
460200,五条壬生川,五条壬生川(西行),,ごじょうみぶがわ,Gojo Mibugawa,五条壬生川,五条壬生川,고조미부가와,0,1,下
461100,新間ノ町二条,新間ノ町二条(東行),,しんあいのまちにじょう,Shin-ainomachi Nijo,新间之町二条,新間之町二条,신아이노마치니조,0,1,左
461200,新間ノ町二条,新間ノ町二条(西行),,しんあいのまちにじょう,Shin-ainomachi Nijo,新间之町二条,新間之町二条,신아이노마치니조,0,1,左
462100,岡崎道,岡崎道(東行),,おかざきみち,Okazaki-michi,冈崎道,岡崎道,오카자키미치,0,1,左
462200,岡崎道,岡崎道(西行),,おかざきみち,Okazaki-michi,冈崎道,岡崎道,오카자키미치,0,1,左
463100,岡崎神社前,岡崎神社前(東行),,おかざきじんじゃまえ,Okazaki Jinja-mae (Okazaki-jinja Shrine),冈崎神社前,岡崎神社前,오카자키진자마에,0,1,左
463200,岡崎神社前,岡崎神社前(西行),,おかざきじんじゃまえ,Okazaki Jinja-mae (Okazaki-jinja Shrine),冈崎神社前,岡崎神社前,오카자키진자마에,0,1,左
464200,銀閣寺前,銀閣寺前(西行),,ぎんかくじまえ,Ginkakuji-mae (Ginkakuji Temple),银阁寺前,銀閣寺前,긴카쿠지마에（은각사）,0,1,左
465400,南田町,南田町(北行),,みなみだちょう,Minamidacho,南田町,南田町,미나미다초,0,1,左
466400,法然院町,法然院町(北行),,ほうねんいんちょう,Honen-incho,法然院町,法然院町,호넨인초,0,1,左
467400,上宮ノ前町,上宮ノ前町(北行),,かみみやのまえちょう,Kamimiyanomaecho,上宫之前町,上宮之前町,가미미야노마에초,0,1,左
468400,宮ノ前町,宮ノ前町(北行),,みやのまえちょう,Miyanomaecho,宫之前町,宮之前町,미야노마에초,0,1,左
469100,一乗寺梅ノ木町,一乗寺梅ノ木町(東行),,いちじょうじうめのきちょう,Ichijoji Umenokicho,一乗寺梅之木町,一乗寺梅之木町,이치조지우메노키초,0,1,左
469200,一乗寺梅ノ木町,一乗寺梅ノ木町(西行),,いちじょうじうめのきちょう,Ichijoji Umenokicho,一乗寺梅之木町,一乗寺梅之木町,이치조지우메노키초,0,1,左
470100,一乗寺地蔵本町,一乗寺地蔵本町(東行),,いちじょうじじぞうもとちょう,Ichijoji Jizomotocho,一乗寺地蔵本町,一乗寺地蔵本町,이치조지지조모토초,0,1,左
470200,一乗寺地蔵本町,一乗寺地蔵本町(西行),,いちじょうじじぞうもとちょう,Ichijoji Jizomotocho,一乗寺地蔵本町,一乗寺地蔵本町,이치조지지조모토초,0,1,左
471300,御薗口町,御薗口町(南行),,みそのぐちちょう,Misonoguchicho,御园口町,御薗口町,미소노구치초,0,1,北
471400,御薗口町,御薗口町(北行),,みそのぐちちょう,Misonoguchicho,御园口町,御薗口町,미소노구치초,0,1,北
472300,朝露ヶ原町,朝露ヶ原町(南行),,あさつゆがはらちょう,Asatsuyugaharacho,朝露原町,朝露原町,아사쓰유가하라초,0,1,北
472400,朝露ヶ原町,朝露ヶ原町(北行),,あさつゆがはらちょう,Asatsuyugaharacho,朝露原町,朝露原町,아사쓰유가하라초,0,1,北
473100,柊野別れ,柊野別れ(東行),,ひらぎのわかれ,Hiragino-wakare,柊野别,柊野別,히라기노와카레,0,1,北
473200,柊野別れ,柊野別れ(西行),,ひらぎのわかれ,Hiragino-wakare,柊野别,柊野別,히라기노와카레,0,1,北
474300,ゴルフ場前,ゴルフ場前(南行),,ごるふじょうまえ,Golf-jo-mae,Golf场前（高尔夫球场）,Golf場前（高爾夫球場）,고루후조마에,0,1,北
474400,ゴルフ場前,ゴルフ場前(北行),,ごるふじょうまえ,Golf-jo-mae,Golf场前（高尔夫球场）,Golf場前（高爾夫球場）,고루후조마에,0,1,北
475300,京都産大前,京都産大前(南行),,きょうとさんだいまえ,Kyoto Sandai-mae (Kyoto Sangyo University),京都产大前（京都産業大学）,京都産大前（京都産業大學）,교토산다이마에（교토산업대학）,0,1,北
476300,西賀茂橋東詰,西賀茂橋東詰(南行),,にしがもばしひがしづめ,Nishigamobashi Higashizume,西贺茂桥东诘（东侧）,西賀茂橋東詰（東側）,니시가모바시히가시즈메,0,1,北
476400,西賀茂橋東詰,西賀茂橋東詰(北行),,にしがもばしひがしづめ,Nishigamobashi Higashizume,西贺茂桥东诘（东侧）,西賀茂橋東詰（東側）,니시가모바시히가시즈메,0,1,北
477100,松ノ下町,松ノ下町(東行),A,まつのしたちょう,Matsunoshitacho,松之下町,松之下町,마쓰노시타초,0,1,北
477200,松ノ下町,松ノ下町(西行),,まつのしたちょう,Matsunoshitacho,松之下町,松之下町,마쓰노시타초,0,1,北
478300,出雲路橋,出雲路橋(南行),,いずもじばし,Izumojibashi,出云路桥,出雲路橋,이즈모지바시,0,1,北
478400,出雲路橋,出雲路橋(北行),,いずもじばし,Izumojibashi,出云路桥,出雲路橋,이즈모지바시,0,1,北
479300,出雲路俵町,出雲路俵町(南行),,いずもじたわらちょう,Izumoji Tawaracho,出云路俵町,出雲路俵町,이즈모지타와라초,0,1,北
479400,出雲路俵町,出雲路俵町(北行),,いずもじたわらちょう,Izumoji Tawaracho,出云路俵町,出雲路俵町,이즈모지타와라초,0,1,北
480300,出雲路神楽町,出雲路神楽町(南行),,いずもじかぐらちょう,Izumoji Kaguracho,出云路神乐町,出雲路神樂町,이즈모지카구라초,0,1,北
480400,出雲路神楽町,出雲路神楽町(北行),,いずもじかぐらちょう,Izumoji Kaguracho,出云路神乐町,出雲路神樂町,이즈모지카구라초,0,1,北
481300,葵橋西詰,葵橋西詰(南行),,あおいばしにしづめ,Aoibashi Nishizume,葵桥西诘（西侧）,葵橋西詰（西側）,아오이바시니시즈메,0,1,上
481400,葵橋西詰,葵橋西詰(北行),,あおいばしにしづめ,Aoibashi Nishizume,葵桥西诘（西侧）,葵橋西詰（西側）,아오이바시니시즈메,0,1,上
495300,河原町松原,河原町松原(南行),A,かわらまちまつばら,Kawaramachi Matsubara,河原町松原,河原町松原,가와라마치마쓰바라,0,1,下
495400,河原町松原,河原町松原(北行),B,かわらまちまつばら,Kawaramachi Matsubara,河原町松原,河原町松原,가와라마치마쓰바라,0,1,下
496100,河原町五条,河原町五条(B),B,かわらまちごじょう,Kawaramachi Gojo,河原町五条,河原町五条,가와라마치고조,0,1,下
496200,河原町五条,河原町五条(C),C,かわらまちごじょう,Kawaramachi Gojo,河原町五条,河原町五条,가와라마치고조,0,1,下
496300,河原町五条,河原町五条(A),A,かわらまちごじょう,Kawaramachi Gojo,河原町五条,河原町五条,가와라마치고조,0,1,下
496400,河原町五条,河原町五条(D),D,かわらまちごじょう,Kawaramachi Gojo,河原町五条,河原町五条,가와라마치고조,0,1,下
497100,五条京阪前,五条京阪前(東行),,ごじょうけいはんまえ,Gojo Keihan-mae,五条京阪前,五条京阪前,고조케이한마에,0,1,東
498100,五条大和大路・東山開睛館前,五条大和大路・東山開睛館前(東行),,ごじょうやまとおおじひがしやまかいせいかんまえ,Gojo Yamatooji Higashiyama Kaiseikan-mae,五条大和大路・东山开睛馆前,五条大和大路・東山開睛館前,고조야마토오지・히가시야마카이세이칸마에,0,1,東
503100,東側町,東側町(バス停),,ひがしがわちょう,Higashigawacho,东侧町,東側町,히가시가와초,0,1.5,右
519100,吉祥院堂ノ後町,吉祥院堂ノ後町(東行),,きっしょういんどうのあとちょう,Kisshoin Donoatocho,吉祥院堂之后町,吉祥院堂之後町,깃쇼인도노아토초,0,1,南
519200,吉祥院堂ノ後町,吉祥院堂ノ後町(西行),,きっしょういんどうのあとちょう,Kisshoin Donoatocho,吉祥院堂之后町,吉祥院堂之後町,깃쇼인도노아토초,0,1,南
520100,吉祥院池田町,吉祥院池田町(東行),A,きっしょういんいけだちょう,Kisshoin Ikedacho,吉祥院池田町,吉祥院池田町,깃쇼인이케다초,0,1,南
520200,吉祥院池田町,吉祥院池田町(西行),B,きっしょういんいけだちょう,Kisshoin Ikedacho,吉祥院池田町,吉祥院池田町,깃쇼인이케다초,0,1,南
520300,吉祥院池田町,吉祥院池田町(南行),,きっしょういんいけだちょう,Kisshoin Ikedacho,吉祥院池田町,吉祥院池田町,깃쇼인이케다초,0,1,南
521300,吉祥院前田町,吉祥院前田町(南行),,きっしょういんまえだちょう,Kisshoin Maedacho,吉祥院前田町,吉祥院前田町,깃쇼인마에다초,0,1,南
521400,吉祥院前田町,吉祥院前田町(北行),,きっしょういんまえだちょう,Kisshoin Maedacho,吉祥院前田町,吉祥院前田町,깃쇼인마에다초,0,1,南
522300,吉祥院高畑町,吉祥院高畑町(南行),A,きっしょういんたかはたちょう,Kisshoin Takahatacho,吉祥院高畑町,吉祥院高畑町,깃쇼인타카하타초,0,1,南
522400,吉祥院高畑町,吉祥院高畑町(北行),,きっしょういんたかはたちょう,Kisshoin Takahatacho,吉祥院高畑町,吉祥院高畑町,깃쇼인타카하타초,0,1,南
523100,吉祥院天満宮前,吉祥院天満宮前(B),B,きっしょういんてんまんぐうまえ,Kisshoin Tenmangu-mae (Kisshoin-tenmangu Shrine),吉祥院天满宫前,吉祥院天滿宮前,깃쇼인텐만구마에,0,1,南
523200,吉祥院天満宮前,吉祥院天満宮前(C),C,きっしょういんてんまんぐうまえ,Kisshoin Tenmangu-mae (Kisshoin-tenmangu Shrine),吉祥院天满宫前,吉祥院天滿宮前,깃쇼인텐만구마에,0,1,南
523300,吉祥院天満宮前,吉祥院天満宮前(A),A,きっしょういんてんまんぐうまえ,Kisshoin Tenmangu-mae (Kisshoin-tenmangu Shrine),吉祥院天满宫前,吉祥院天滿宮前,깃쇼인텐만구마에,0,1,南
523400,吉祥院天満宮前,吉祥院天満宮前(D),D,きっしょういんてんまんぐうまえ,Kisshoin Tenmangu-mae (Kisshoin-tenmangu Shrine),吉祥院天满宫前,吉祥院天滿宮前,깃쇼인텐만구마에,0,1,南
524100,落合町,落合町(東行),A,おちあいちょう,Ochiaicho,落合町,落合町,오치아이초,0,1,南
524200,落合町,落合町(西行),B,おちあいちょう,Ochiaicho,落合町,落合町,오치아이초,0,1,南
525100,十条大宮,十条大宮(東行),A,じゅうじょうおおみや,Jujo Omiya,十条大宫,十条大宮,주조오미야,0,1,南
525200,十条大宮,十条大宮(西行),B,じゅうじょうおおみや,Jujo Omiya,十条大宫,十条大宮,주조오미야,0,1,南
526100,十条油小路,十条油小路(東行),A,じゅうじょうあぶらのこうじ,Jujo Aburanokoji,十条油小路,十条油小路,주조아부라노코지,0,1,南
526200,十条油小路,十条油小路(西行),B,じゅうじょうあぶらのこうじ,Jujo Aburanokoji,十条油小路,十条油小路,주조아부라노코지,0,1,南
527100,十条新町,十条新町(東行),A,じゅうじょうしんまち,Jujo Shinmachi,十条新町,十条新町,주조신마치,0,1,南
527200,十条新町,十条新町(西行),B,じゅうじょうしんまち,Jujo Shinmachi,十条新町,十条新町,주조신마치,0,1,南
528100,十条竹田街道,十条竹田街道(D),D,じゅうじょうたけだかいどう,Jujo Takedakaido,十条竹田街道,十条竹田街道,주조타케다카이도,0,1,南
528200,十条竹田街道,十条竹田街道(C),C,じゅうじょうたけだかいどう,Jujo Takedakaido,十条竹田街道,十条竹田街道,주조타케다카이도,0,1,南
528300,十条竹田街道,十条竹田街道(A),A,じゅうじょうたけだかいどう,Jujo Takedakaido,十条竹田街道,十条竹田街道,주조타케다카이도,0,1,南
528400,十条竹田街道,十条竹田街道(B),B,じゅうじょうたけだかいどう,Jujo Takedakaido,十条竹田街道,十条竹田街道,주조타케다카이도,0,1,南
529300,河原町十条,河原町十条(南行),,かわらまちじゅうじょう,Kawaramachi Jujo,河原町十条,河原町十条,가와라마치주조,0,1,南
529400,河原町十条,河原町十条(北行),,かわらまちじゅうじょう,Kawaramachi Jujo,河原町十条,河原町十条,가와라마치주조,0,1,南
530300,南松ノ木町,南松ノ木町(南行),,みなみまつのきちょう,Minamimatsunokicho,南松之木町,南松之木町,미나미마쓰노키초,0,1,南
530400,南松ノ木町,南松ノ木町(北行),,みなみまつのきちょう,Minamimatsunokicho,南松之木町,南松之木町,미나미마쓰노키초,0,1,南
531100,九条河原町,九条河原町(A),A,くじょうかわらまち,Kujo Kawaramachi,九条河原町,九条河原町,구조카와라마치,0,1,南
531200,九条河原町,九条河原町(D),D,くじょうかわらまち,Kujo Kawaramachi,九条河原町,九条河原町,구조카와라마치,0,1,南
531300,九条河原町,九条河原町(B),B,くじょうかわらまち,Kujo Kawaramachi,九条河原町,九条河原町,구조카와라마치,0,1,南
531420,九条河原町,九条河原町(C),C,くじょうかわらまち,Kujo Kawaramachi,九条河原町,九条河原町,구조카와라마치,0,1,南
532100,京都駅八条口アバンティ前,京都駅八条口アバンティ前(I1),I1,きょうとえきはちじょうぐちあばんてぃまえ,Kyoto Station (Hachijoguchi Avanti-mae),京都站八条口Avanti前,京都車站八条口Avanti前,교토에키하치조구치 아반티마에,0,1,下
532200,京都駅八条口アバンティ前,京都駅八条口アバンティ前(I2),I2,きょうとえきはちじょうぐちあばんてぃまえ,Kyoto Station (Hachijoguchi Avanti-mae),京都站八条口Avanti前,京都車站八条口Avanti前,교토에키하치조구치 아반티마에,0,1,南
532300,京都駅八条口アバンティ前,京都駅八条口アバンティ前(H7),H7,きょうとえきはちじょうぐちあばんてぃまえ,Kyoto Station (Hachijoguchi Avanti-mae),京都站八条口Avanti前,京都車站八条口Avanti前,교토에키하치조구치 아반티마에,0,1,南
532400,京都駅八条口アバンティ前,京都駅八条口アバンティ前(H5),H5,きょうとえきはちじょうぐちあばんてぃまえ,Kyoto Station (Hachijoguchi Avanti-mae),京都站八条口Avanti前,京都車站八条口Avanti前,교토에키하치조구치 아반티마에,0,1,南
533110,塩小路高倉・京都市立芸術大学前,塩小路高倉・京都市立芸術大学前(東行東詰),,しおこうじたかくら・きょうとしりつげいじゅつだいがくまえ,Shiokoji Takakura / Kyoto Shiritsu Geijutsudaigaku-mae (Kyoto City University of Arts),盐小路高仓・京都市立艺术大学前,鹽小路高倉・京都市立藝術大學前,시오코지타카쿠라・교토시리쓰게이주쓰다이가쿠마에（교토시립예술대학）,0,1,下
533120,塩小路高倉・京都市立芸術大学前,塩小路高倉・京都市立芸術大学前(東行西詰),,しおこうじたかくら・きょうとしりつげいじゅつだいがくまえ,Shiokoji Takakura / Kyoto Shiritsu Geijutsudaigaku-mae (Kyoto City University of Arts),盐小路高仓・京都市立艺术大学前,鹽小路高倉・京都市立藝術大學前,시오코지타카쿠라・교토시리쓰게이주쓰다이가쿠마에（교토시립예술대학）,0,1,下
533200,塩小路高倉・京都市立芸術大学前,塩小路高倉・京都市立芸術大学前(西行),,しおこうじたかくら・きょうとしりつげいじゅつだいがくまえ,Shiokoji Takakura / Kyoto Shiritsu Geijutsudaigaku-mae (Kyoto City University of Arts),盐小路高仓・京都市立艺术大学前,鹽小路高倉・京都市立藝術大學前,시오코지타카쿠라・교토시리쓰게이주쓰다이가쿠마에（교토시립예술대학）,0,1,下
533300,塩小路高倉・京都市立芸術大学前,塩小路高倉・京都市立芸術大学前(南行),,しおこうじたかくら・きょうとしりつげいじゅつだいがくまえ,Shiokoji Takakura / Kyoto Shiritsu Geijutsudaigaku-mae (Kyoto City University of Arts),盐小路高仓・京都市立艺术大学前,鹽小路高倉・京都市立藝術大學前,시오코지타카쿠라・교토시리쓰게이주쓰다이가쿠마에（교토시립예술대학）,0,1,下
533400,塩小路高倉・京都市立芸術大学前,塩小路高倉・京都市立芸術大学前(北行),,しおこうじたかくら・きょうとしりつげいじゅつだいがくまえ,Shiokoji Takakura / Kyoto Shiritsu Geijutsudaigaku-mae (Kyoto City University of Arts),盐小路高仓・京都市立艺术大学前,鹽小路高倉・京都市立藝術大學前,시오코지타카쿠라・교토시리쓰게이주쓰다이가쿠마에（교토시립예술대학）,0,1,下
534100,七条河原町,七条河原町(D),D,ななじょうかわらまち,Nanajo Kawaramachi,七条河原町,七条河原町,나나조카와라마치,0,1,下
534200,七条河原町,七条河原町(C),C,ななじょうかわらまち,Nanajo Kawaramachi,七条河原町,七条河原町,나나조카와라마치,0,1,下
534300,七条河原町,七条河原町(A),A,ななじょうかわらまち,Nanajo Kawaramachi,七条河原町,七条河原町,나나조카와라마치,0,1,下
534400,七条河原町,七条河原町(B),B,ななじょうかわらまち,Nanajo Kawaramachi,七条河原町,七条河原町,나나조카와라마치,0,1,下
535300,河原町正面,河原町正面(南行),,かわらまちしょうめん,Kawaramachi Shomen,河原町正面,河原町正面,가와라마치쇼멘,0,1,下
535400,河原町正面,河原町正面(北行),,かわらまちしょうめん,Kawaramachi Shomen,河原町正面,河原町正面,가와라마치쇼멘,0,1,下
536100,吉祥院蒔絵町,吉祥院蒔絵町(東行),A,きっしょういんまきえちょう,Kisshoin Makiecho,吉祥院莳绘町,吉祥院蒔繪町,깃쇼인마키에초,0,1,南
536200,吉祥院蒔絵町,吉祥院蒔絵町(西行),B,きっしょういんまきえちょう,Kisshoin Makiecho,吉祥院莳绘町,吉祥院蒔繪町,깃쇼인마키에초,0,1,南
537300,船戸町,船戸町(南行),A,ふなとちょう,Funatocho,船户町,船戶町,후나토초,0,1,南
537400,船戸町,船戸町(北行),B,ふなとちょう,Funatocho,船户町,船戶町,후나토초,0,1,南
538100,五条高倉,五条高倉(東行),,ごじょうたかくら,Gojo Takakura,五条高仓,五条高倉,고조타카쿠라,0,1,下
538200,五条高倉,五条高倉(西行),,ごじょうたかくら,Gojo Takakura,五条高仓,五条高倉,고조타카쿠라,0,1,下
539300,河原町八条,河原町八条(南行),,かわらまちはちじょう,Kawaramachi Hachijo,河原町八条,河原町八条,가와라마치하치조,0,1,南
539400,河原町八条,河原町八条(北行),,かわらまちはちじょう,Kawaramachi Hachijo,河原町八条,河原町八条,가와라마치하치조,0,1,南
540300,西賀茂井ノ口町,西賀茂井ノ口町(南行),,にしがもいのくちちょう,Nishigamo Inokuchicho,西贺茂井之口町,西賀茂井之口町,니시가모이노쿠치초,0,1,北
540400,西賀茂井ノ口町,西賀茂井ノ口町(北行),,にしがもいのくちちょう,Nishigamo Inokuchicho,西贺茂井之口町,西賀茂井之口町,니시가모이노쿠치초,0,1,北
541300,志久呂橋西詰,志久呂橋西詰(南行),,しくろばしにしづめ,Shikurobashi Nishizume,志久吕桥西诘（西侧）,志久呂橋西詰（西側）,시쿠로바시니시즈메,0,1,北
541400,志久呂橋西詰,志久呂橋西詰(北行),,しくろばしにしづめ,Shikurobashi Nishizume,志久吕桥西诘（西侧）,志久呂橋西詰（西側）,시쿠로바시니시즈메,0,1,北
542100,志久呂橋,志久呂橋(東行),,しくろばし,Shikurobashi,志久吕桥,志久呂橋,시쿠로바시,0,1,北
543400,柊野,柊野(北行),,ひらぎの,Hiragino,柊野,柊野,히라기노,0,1,北
547300,大宮小野堀町,大宮小野堀町(南行),,おおみやおのぼりちょう,Omiya Onoboricho,大宫小野堀町,大宮小野堀町,오미야오노보리초,0,1,北
547400,大宮小野堀町,大宮小野堀町(北行),,おおみやおのぼりちょう,Omiya Onoboricho,大宫小野堀町,大宮小野堀町,오미야오노보리초,0,1,北
548100,下竹殿町,下竹殿町(東行),,しもたけどのちょう,Shimotakedonocho,下竹殿町,下竹殿町,시모타케도노초,0,1,北
548200,下竹殿町,下竹殿町(西行),,しもたけどのちょう,Shimotakedonocho,下竹殿町,下竹殿町,시모타케도노초,0,1,北
549100,大宮大門町,大宮大門町(東行),,おおみやだいもんちょう,Omiya Daimoncho,大宫大门町,大宮大門町,오미야다이몬초,0,1,北
549200,大宮大門町,大宮大門町(西行),,おおみやだいもんちょう,Omiya Daimoncho,大宫大门町,大宮大門町,오미야다이몬초,0,1,北
550100,大宮交通公園前,大宮交通公園前(東行),,おおみやこうつうこうえんまえ,Omiya Kotsukoen-mae,大宫交通公园前,大宮交通公園前,오미야코쓰코엔마에,0,1,北
550300,大宮交通公園前,大宮交通公園前(南行),,おおみやこうつうこうえんまえ,Omiya Kotsukoen-mae,大宫交通公园前,大宮交通公園前,오미야코쓰코엔마에,0,1,北
550400,大宮交通公園前,大宮交通公園前(北行),,おおみやこうつうこうえんまえ,Omiya Kotsukoen-mae,大宫交通公园前,大宮交通公園前,오미야코쓰코엔마에,0,1,北
551300,牛若,牛若(南行),,うしわか,Ushiwaka,牛若,牛若,우시와카,0,1,北
551400,牛若,牛若(北行),,うしわか,Ushiwaka,牛若,牛若,우시와카,0,1,北
552300,紫野上野町,紫野上野町(南行),,むらさきのうえのちょう,Murasakino Uenocho,紫野上野町,紫野上野町,무라사키노우에노초,0,1,北
552400,紫野上野町,紫野上野町(北行),,むらさきのうえのちょう,Murasakino Uenocho,紫野上野町,紫野上野町,무라사키노우에노초,0,1,北
553300,下津林中島,下津林中島(南行),,しもつばやしなかじま,Shimotsubayashi Nakajima,下津林中岛,下津林中島,시모쓰바야시나카지마,1,2,西
553400,下津林中島,下津林中島(北行),,しもつばやしなかじま,Shimotsubayashi Nakajima,下津林中岛,下津林中島,시모쓰바야시나카지마,1,2,西
554100,今宮神社前,今宮神社前(東行),,いまみやじんじゃまえ,Imamiya Jinja-mae (Imamiya-jinja Shrine),今宫神社前,今宮神社前,이마미야진자마에,0,1,北
554200,今宮神社前,今宮神社前(西行),,いまみやじんじゃまえ,Imamiya Jinja-mae (Imamiya-jinja Shrine),今宫神社前,今宮神社前,이마미야진자마에,0,1,北
555300,北上久世,北上久世(南行),,きたかみくぜ,Kita-Kamikuze,北上久世,北上久世,기타카미쿠제,1,2,南
555400,北上久世,北上久世(北行),,きたかみくぜ,Kita-Kamikuze,北上久世,北上久世,기타카미쿠제,1,2,南
557300,猿田彦橋,猿田彦橋(南行),,さるたひこばし,Sarutahikobashi,猿田彦桥,猿田彥橋,사루타히코바시,0,1,右
557400,猿田彦橋,猿田彦橋(北行),,さるたひこばし,Sarutahikobashi,猿田彦桥,猿田彥橋,사루타히코바시,0,1,右
558300,葛野大路八条,葛野大路八条(南行),A,かどのおおじはちじょう,Kadonooji Hachijo,葛野大路八条,葛野大路八条,가도노오지하치조,0,1,右
558400,葛野大路八条,葛野大路八条(北行),B,かどのおおじはちじょう,Kadonooji Hachijo,葛野大路八条,葛野大路八条,가도노오지하치조,0,1,右
559300,吉祥院運動公園前,吉祥院運動公園前(南行),,きっしょういんうんどうこうえんまえ,Kisshoin Undokoen-mae,吉祥院运动公园前,吉祥院運動公園前,깃쇼인운도코엔마에,0,1,南
559400,吉祥院運動公園前,吉祥院運動公園前(北行),,きっしょういんうんどうこうえんまえ,Kisshoin Undokoen-mae,吉祥院运动公园前,吉祥院運動公園前,깃쇼인운도코엔마에,0,1,南
560100,羽束師志水町,羽束師志水町(東行),,はづかししみずちょう,Hazukashi Shimizucho,羽束师志水町,羽束師志水町,하즈카시시미즈초,0,1,伏
560200,羽束師志水町,羽束師志水町(西行),A,はづかししみずちょう,Hazukashi Shimizucho,羽束师志水町,羽束師志水町,하즈카시시미즈초,0,1,伏
561200,ＪＲ長岡京駅（東口）,ＪＲ長岡京駅（東口）(バス停),,じぇいあーるながおかきょうえき（ひがしぐち）,JR Nagaokakyo Station (Higashiguchi),ＪＲ长冈京站（东口）,ＪＲ長岡京車站（東口）,ＪＲ나가오카쿄에키（히가시구치）,1,1,長
562100,芝本,芝本(東行),,しばもと,Shibamoto,芝本,芝本,시바모토,1,1,長
562200,芝本,芝本(西行),,しばもと,Shibamoto,芝本,芝本,시바모토,1,1,長
563100,馬場,馬場(東行),,ばば,Baba,马场,馬場,바바,1,1,伏
563300,馬場,馬場(南行),,ばば,Baba,马场,馬場,바바,1,1,長
564100,工業団地前,工業団地前(東行),,こうぎょうだんちまえ,Kogyodanchi-mae,工业团地前,工業團地前,고교단치마에,1,1,伏
564200,工業団地前,工業団地前(西行),,こうぎょうだんちまえ,Kogyodanchi-mae,工业团地前,工業團地前,고교단치마에,1,1,伏
565300,南区総合庁舎前,南区総合庁舎前(南行),,みなみくそうごうちょうしゃまえ,Minamiku Sogochosha-mae (Minami Ward Office),南区综合厅舍前（南区政府）,南區總合廳舍前（南區公所）,미나미쿠소고초샤마에（미나미 구청）,0,1,南
565400,南区総合庁舎前,南区総合庁舎前(北行),,みなみくそうごうちょうしゃまえ,Minamiku Sogochosha-mae (Minami Ward Office),南区综合厅舍前（南区政府）,南區總合廳舍前（南區公所）,미나미쿠소고초샤마에（미나미 구청）,0,1,南
566400,柊野グラウンド前,柊野グラウンド前(北行),,ひらぎのぐらうんどまえ,Hiragino Ground-mae,柊野Ground前,柊野Ground前,히라기노구라운도마에,0,1,北
567300,高橋南,高橋南(南行),,たかばしみなみ,Takabashi-Minami,高桥南,高橋南,다카바시미나미,0,1,北
568300,西賀茂庄田町,西賀茂庄田町(南行),,にしがもしょうだちょう,Nishigamoshodacho,西贺茂庄田町,西賀茂庄田町,니시가모쇼다초,0,1,北
569300,西賀茂中学北,西賀茂中学北(南行),,にしがもちゅうがくきた,Nishigamo Chugaku-Kita,西贺茂中学北,西賀茂中學北,니시가모추가쿠기타,0,1,北
572001,ＪＲ桂川駅前,ＪＲ桂川駅前(おりば),,じぇいあーるかつらがわえきまえ,JR Katsuragawa Station,ＪＲ桂川站前,ＪＲ桂川車站前,ＪＲ카쓰라가와에키마에,1,2,南
572100,ＪＲ桂川駅前,ＪＲ桂川駅前(3),3,じぇいあーるかつらがわえきまえ,JR Katsuragawa Station,ＪＲ桂川站前,ＪＲ桂川車站前,ＪＲ카쓰라가와에키마에,1,2,南
572200,ＪＲ桂川駅前,ＪＲ桂川駅前(1),1,じぇいあーるかつらがわえきまえ,JR Katsuragawa Station,ＪＲ桂川站前,ＪＲ桂川車站前,ＪＲ카쓰라가와에키마에,1,2,南
578100,近鉄上鳥羽口駅前,近鉄上鳥羽口駅前(東行),,きんてつかみとばぐちえきまえ,Kintetsu Kamitobaguchi Station,近铁上鸟羽口站前,近鐵上鳥羽口車站前,긴테쓰카미토바구치에키마에,0,1,伏
578200,近鉄上鳥羽口駅前,近鉄上鳥羽口駅前(西行),,きんてつかみとばぐちえきまえ,Kintetsu Kamitobaguchi Station,近铁上鸟羽口站前,近鐵上鳥羽口車站前,긴테쓰카미토바구치에키마에,0,1,伏
579200,ＪＲ藤森駅前,ＪＲ藤森駅前(バス停),,じぇいあーるふじのもりえきまえ,JR Fujinomori Station,ＪＲ藤森站前,ＪＲ藤森車站前,ＪＲ후지노모리에키마에,0,1,伏
580100,大宮中立売,大宮中立売(東行),,おおみやなかだちうり,Omiya Nakadachiuri,大宫中立卖,大宮中立賣,오미야나카다치우리,0,1,上
580200,大宮中立売,大宮中立売(西行),,おおみやなかだちうり,Omiya Nakadachiuri,大宫中立卖,大宮中立賣,오미야나카다치우리,0,1,上
581300,西洞院仏光寺,西洞院仏光寺(南行),,にしのとういんぶっこうじ,Nishinotoin Bukkoji,西洞院佛光寺,西洞院佛光寺,니시노토인붓코지,0,1,下
581400,西洞院仏光寺,西洞院仏光寺(北行),,にしのとういんぶっこうじ,Nishinotoin Bukkoji,西洞院佛光寺,西洞院佛光寺,니시노토인붓코지,0,1,下
582300,西洞院松原,西洞院松原(南行),,にしのとういんまつばら,Nishinotoin Matsubara,西洞院松原,西洞院松原,니시노토인마쓰바라,0,1,下
582400,西洞院松原,西洞院松原(北行),,にしのとういんまつばら,Nishinotoin Matsubara,西洞院松原,西洞院松原,니시노토인마쓰바라,0,1,下
589100,東元町,東元町(東行),,ひがしもとまち,Higashimotomachi,东元町,東元町,히가시모토마치,0,1,北
589200,東元町,東元町(西行),,ひがしもとまち,Higashimotomachi,东元町,東元町,히가시모토마치,0,1,北
589300,東元町,東元町(南行),,ひがしもとまち,Higashimotomachi,东元町,東元町,히가시모토마치,0,1,北
589400,東元町,東元町(北行),,ひがしもとまち,Higashimotomachi,东元町,東元町,히가시모토마치,0,1,北
590100,北山橋東詰,北山橋東詰(東行),,きたやまばしひがしづめ,Kitayamabashi Higashizume,北山桥东诘（东侧）,北山橋東詰（東側）,기타야마바시히가시즈메,0,1,左
590200,北山橋東詰,北山橋東詰(西行),,きたやまばしひがしづめ,Kitayamabashi Higashizume,北山桥东诘（东侧）,北山橋東詰（東側）,기타야마바시히가시즈메,0,1,左
591100,植物園北門前,植物園北門前(東行),,しょくぶつえんきたもんまえ,Shokubutsuen Kitamon-mae (Botanical Gardens),植物园北门前,植物園北門前,쇼쿠부쓰엔키타몬마에,0,1,左
591200,植物園北門前,植物園北門前(西行),B,しょくぶつえんきたもんまえ,Shokubutsuen Kitamon-mae (Botanical Gardens),植物园北门前,植物園北門前,쇼쿠부쓰엔키타몬마에,0,1,左
592300,安井西口,安井西口(南行),,やすいにしぐち,Yasui Nishiguchi,安井西口,安井西口,야스이니시구치,0,1,右
592400,安井西口,安井西口(北行),,やすいにしぐち,Yasui Nishiguchi,安井西口,安井西口,야스이니시구치,0,1,右
593300,黒橋,黒橋(南行),,くろばし,Kurobashi,黒桥,黒橋,구로바시,0,1,右
593400,黒橋,黒橋(北行),,くろばし,Kurobashi,黒桥,黒橋,구로바시,0,1,右
594300,深草北蓮池町,深草北蓮池町(南行),,ふかくさきたはすいけちょう,Fukakusa Kitahasuikecho,深草北莲池町,深草北蓮池町,후카쿠사키타하스이케초,0,1,伏
595300,下町,下町(南行),,したまち,Shitamachi,下町,下町,시타마치,0,1,伏
596300,伏見インクライン前,伏見インクライン前(南行),,ふしみいんくらいんまえ,Fushimi Incline-mae,伏见Incline前（倾斜铁路古迹）,伏見Incline前（傾斜鐵路古蹟）,후시미인쿠라인마에（경사 철도）,0,1,伏
599300,納所岸ノ下,納所岸ノ下(南行),,のうそきしのした,Noso Kishinoshita,纳所岸之下,納所岸之下,노소키시노시타,0,1,伏
599400,納所岸ノ下,納所岸ノ下(北行),,のうそきしのした,Noso Kishinoshita,纳所岸之下,納所岸之下,노소키시노시타,0,1,伏
600300,御香宮前,御香宮前(南行),,ごこうのみやまえ,Gokonomiya-mae,御香宫前,御香宮前,고코노미야마에,0,1,伏
600400,御香宮前,御香宮前(北行),,ごこうのみやまえ,Gokonomiya-mae,御香宫前,御香宮前,고코노미야마에,0,1,伏
601300,板橋,板橋(南行),,いたばし,Itabashi,板桥,板橋,이타바시,0,1,伏
601400,板橋,板橋(北行),,いたばし,Itabashi,板桥,板橋,이타바시,0,1,伏
602300,丹波橋,丹波橋(南行),,たんばばし,Tanbabashi,丹波桥,丹波橋,단바바시,0,1,伏
602400,丹波橋,丹波橋(北行),,たんばばし,Tanbabashi,丹波桥,丹波橋,단바바시,0,1,伏
603300,桃山中学前,桃山中学前(南行),,ももやまちゅうがくまえ,Momoyama Chugaku-mae,桃山中学前,桃山中學前,모모야마추가쿠마에,0,1,伏
603400,桃山中学前,桃山中学前(北行),,ももやまちゅうがくまえ,Momoyama Chugaku-mae,桃山中学前,桃山中學前,모모야마추가쿠마에,0,1,伏
604300,最上町,最上町(南行),,もがみちょう,Mogamicho,最上町,最上町,모가미초,0,1,伏
604400,最上町,最上町(北行),,もがみちょう,Mogamicho,最上町,最上町,모가미초,0,1,伏
605400,墨染,墨染(北行),,すみぞめ,Sumizome,墨染,墨染,스미조메,0,1,伏
606100,伯楽町,伯楽町(東行),A,はくらくちょう,Hakurakucho,伯乐町,伯樂町,하쿠라쿠초,0,1,中
606200,伯楽町,伯楽町(西行),B,はくらくちょう,Hakurakucho,伯乐町,伯樂町,하쿠라쿠초,0,1,中
607100,西ノ京馬代町,西ノ京馬代町(東行),,にしのきょうばだいちょう,Nishinokyo Badaicho,西之京马代町,西之京馬代町,니시노쿄바다이초,0,1,右
607200,西ノ京馬代町,西ノ京馬代町(西行),,にしのきょうばだいちょう,Nishinokyo Badaicho,西之京马代町,西之京馬代町,니시노쿄바다이초,0,1,右
608100,木辻南町,木辻南町(東行),A,きつじみなみちょう,Kitsujiminamicho,木辻南町,木辻南町,기쓰지미나미초,0,1,右
608200,木辻南町,木辻南町(西行),B,きつじみなみちょう,Kitsujiminamicho,木辻南町,木辻南町,기쓰지미나미초,0,1,右
609100,妙心寺前,妙心寺前(東行),,みょうしんじまえ,Myoshinji-mae (Myoshinji Temple),妙心寺前,妙心寺前,묘신지마에,0,1,右
609200,妙心寺前,妙心寺前(西行),B,みょうしんじまえ,Myoshinji-mae (Myoshinji Temple),妙心寺前,妙心寺前,묘신지마에,0,1,右
610100,花園駅前,花園駅前(東行),A,はなぞのえきまえ,Hanazono Station,花园站前,花園車站前,하나조노에키마에,0,1,右
610200,花園駅前,花園駅前(西行),B,はなぞのえきまえ,Hanazono Station,花园站前,花園車站前,하나조노에키마에,0,1,右
611300,双ヶ丘,双ヶ丘(南行),,ならびがおか,Narabigaoka,双丘,雙丘,나라비가오카,0,1,右
611400,双ヶ丘,双ヶ丘(北行),,ならびがおか,Narabigaoka,双丘,雙丘,나라비가오카,0,1,右
612300,常盤御池町,常盤御池町(南行),,ときわおいけちょう,Tokiwa Oikecho,常盘御池町,常盤御池町,도키와오이케초,0,1,右
612400,常盤御池町,常盤御池町(北行),,ときわおいけちょう,Tokiwa Oikecho,常盘御池町,常盤御池町,도키와오이케초,0,1,右
613300,宇多野御屋敷町,宇多野御屋敷町(南行),,うたのおやしきちょう,Utano Oyashikicho,宇多野御屋敷町,宇多野御屋敷町,우타노오야시키초,0,1,右
613400,宇多野御屋敷町,宇多野御屋敷町(北行),,うたのおやしきちょう,Utano Oyashikicho,宇多野御屋敷町,宇多野御屋敷町,우타노오야시키초,0,1,右
614300,嵐電宇多野駅前,嵐電宇多野駅前(南行),,らんでんうたのえきまえ,Randen Utano Station,岚电宇多野站前,嵐電宇多野車站前,란덴우타노에키마에,0,1,右
614400,嵐電宇多野駅前,嵐電宇多野駅前(北行),,らんでんうたのえきまえ,Randen Utano Station,岚电宇多野站前,嵐電宇多野車站前,란덴우타노에키마에,0,1,右
615100,嵯峨野秋街道町,嵯峨野秋街道町(東行),,さがのあきかいどうちょう,Sagano Akikaidocho,嵯峨野秋街道町,嵯峨野秋街道町,사가노아키카이도초,0,1,右
615200,嵯峨野秋街道町,嵯峨野秋街道町(西行),,さがのあきかいどうちょう,Sagano Akikaidocho,嵯峨野秋街道町,嵯峨野秋街道町,사가노아키카이도초,0,1,右
616100,竹田出橋,竹田出橋(東行),,たけだいでばし,Takeda Idebashi,竹田出桥,竹田出橋,다케다이데바시,0,1,伏
616200,竹田出橋,竹田出橋(西行),,たけだいでばし,Takeda Idebashi,竹田出桥,竹田出橋,다케다이데바시,0,1,伏
616300,竹田出橋,竹田出橋(南行),,たけだいでばし,Takeda Idebashi,竹田出桥,竹田出橋,다케다이데바시,0,1,伏
616400,竹田出橋,竹田出橋(北行),,たけだいでばし,Takeda Idebashi,竹田出桥,竹田出橋,다케다이데바시,0,1,伏
617300,竹田久保町,竹田久保町(南行),,たけだくぼちょう,Takeda Kubocho,竹田久保町,竹田久保町,다케다쿠보초,0,1,伏
617400,竹田久保町,竹田久保町(北行),,たけだくぼちょう,Takeda Kubocho,竹田久保町,竹田久保町,다케다쿠보초,0,1,伏
618300,深草下川原町,深草下川原町(南行),,ふかくさしもかわらちょう,Fukakusa Shimokawaracho,深草下川原町,深草下川原町,후카쿠사시모카와라초,0,1,伏
618400,深草下川原町,深草下川原町(北行),,ふかくさしもかわらちょう,Fukakusa Shimokawaracho,深草下川原町,深草下川原町,후카쿠사시모카와라초,0,1,伏
619300,勧進橋,勧進橋(南行),,かんじんばし,Kanjinbashi,劝进桥,勸進橋,간진바시,0,1,伏
619400,勧進橋,勧進橋(北行),,かんじんばし,Kanjinbashi,劝进桥,勸進橋,간진바시,0,1,伏
620300,札ノ辻,札ノ辻(南行),,ふだのつじ,Fudanotsuji,札之辻,札之辻,후다노쓰지,0,1,南
620400,札ノ辻,札ノ辻(北行),,ふだのつじ,Fudanotsuji,札之辻,札之辻,후다노쓰지,0,1,南
621300,築山,築山(南行),,つきやま,Tsukiyama,筑山,築山,쓰키야마,0,1,南
622001,久世工業団地前,久世工業団地前(おりば),,くぜこうぎょうだんちまえ,Kuze Kogyodanchi-mae,久世工业团地前,久世工業團地前,구제코교단치마에,0,1,南
622200,久世工業団地前,久世工業団地前(西行),,くぜこうぎょうだんちまえ,Kuze Kogyodanchi-mae,久世工业团地前,久世工業團地前,구제코교단치마에,0,1,南
623100,久世大藪町,久世大薮町(東行),,くぜおおやぶちょう,Kuze Oyabucho,久世大薮町,久世大藪町,구제오야부초,0,1,南
623200,久世大藪町,久世大薮町(西行),,くぜおおやぶちょう,Kuze Oyabucho,久世大薮町,久世大藪町,구제오야부초,0,1,南
624100,御室,御室(東行),,おむろ,Omuro,御室,御室,오무로,0,1,右
624200,御室,御室(西行),,おむろ,Omuro,御室,御室,오무로,0,1,右
625300,塔ノ下町,塔ノ下町(南行),,とうのしたちょう,Tonoshitacho,塔之下町,塔之下町,도노시타초,0,1,右
625400,塔ノ下町,塔ノ下町(北行),,とうのしたちょう,Tonoshitacho,塔之下町,塔之下町,도노시타초,0,1,右
626100,龍安寺前,龍安寺前(東行),,りょうあんじまえ,Ryoanji-mae (Ryoanji Temple),龍安寺前,龍安寺前,료안지마에,0,1,右
626200,龍安寺前,龍安寺前(西行),,りょうあんじまえ,Ryoanji-mae (Ryoanji Temple),龍安寺前,龍安寺前,료안지마에,0,1,右
627100,今出川大宮,今出川大宮(東行),,いまでがわおおみや,Imadegawa Omiya,今出川大宫,今出川大宮,이마데가와오미야,0,1,上
627200,今出川大宮,今出川大宮(西行),,いまでがわおおみや,Imadegawa Omiya,今出川大宫,今出川大宮,이마데가와오미야,0,1,上
628100,上京区総合庁舎前,上京区総合庁舎前(東行),,かみぎょうくそうごうちょうしゃまえ,Kamigyoku Sogochosha-mae (Kamigyo Ward Office),上京区综合厅舍前（上京区政府）,上京區總合廳舍前（上京區公所）,가미교쿠소고초샤마에（가미교 구청）,0,1,上
628200,上京区総合庁舎前,上京区総合庁舎前(西行),,かみぎょうくそうごうちょうしゃまえ,Kamigyoku Sogochosha-mae (Kamigyo Ward Office),上京区综合厅舍前（上京区政府）,上京區總合廳舍前（上京區公所）,가미교쿠소고초샤마에（가미교 구청）,0,1,上
629100,同志社前,同志社前(東行),,どうししゃまえ,Doshisha-mae (Doshisha University),同志社前（同志社大学）,同志社前（同志社大學）,도시샤마에（도시샤대학）,0,1,上
629200,同志社前,同志社前(西行),,どうししゃまえ,Doshisha-mae (Doshisha University),同志社前（同志社大学）,同志社前（同志社大學）,도시샤마에（도시샤대학）,0,1,上
630110,洛西口駅前,洛西口駅前(東行),,らくさいぐちえきまえ,Rakusaiguchi Station,洛西口站前,洛西口車站前,라쿠사이구치에키마에,1,2,向
630120,洛西口駅前,洛西口駅前(東行(駅前広場内)),,らくさいぐちえきまえ,Rakusaiguchi Station,洛西口站前,洛西口車站前,라쿠사이구치에키마에,1,2,西
630200,洛西口駅前,洛西口駅前(西行(駅前広場内)),,らくさいぐちえきまえ,Rakusaiguchi Station,洛西口站前,洛西口車站前,라쿠사이구치에키마에,1,2,西
632300,久世七本松,久世七本松(南行),,くぜしちほんまつ,Kuze Shichihonmatsu,久世七本松,久世七本松,구제시치혼마쓰,1,2,南
632400,久世七本松,久世七本松(北行),,くぜしちほんまつ,Kuze Shichihonmatsu,久世七本松,久世七本松,구제시치혼마쓰,1,2,南
633100,高田町,高田町(東行),,たかだちょう,Takadacho,高田町,高田町,다카다초,1,2,南
633200,高田町,高田町(西行),,たかだちょう,Takadacho,高田町,高田町,다카다초,1,2,南
634300,川島六ノ坪町,川島六ノ坪町(南行),,かわしまろくのつぼちょう,Kawashima Rokunotsubocho,川岛六之坪町,川島六之坪町,가와시마로쿠노쓰보초,1,2,西
634400,川島六ノ坪町,川島六ノ坪町(北行),,かわしまろくのつぼちょう,Kawashima Rokunotsubocho,川岛六之坪町,川島六之坪町,가와시마로쿠노쓰보초,1,2,西
635300,自衛隊前,自衛隊前(南行),,じえいたいまえ,Jieitai-mae,自卫队前,自衛隊前,지에이타이마에,1,2,西
635400,自衛隊前,自衛隊前(北行),,じえいたいまえ,Jieitai-mae,自卫队前,自衛隊前,지에이타이마에,1,2,西
636300,莚田町,莚田町(南行),,むしろだちょう,Mushirodacho,莚田町,莚田町,무시로다초,1,2,西
636400,莚田町,莚田町(北行),,むしろだちょう,Mushirodacho,莚田町,莚田町,무시로다초,1,2,西
637100,桂高校前,桂高校前(東行),A,かつらこうこうまえ,Katsura Koko-mae,桂高中前,桂高校前,가쓰라코코마에,1,2,西
637200,桂高校前,桂高校前(西行),,かつらこうこうまえ,Katsura Koko-mae,桂高中前,桂高校前,가쓰라코코마에,1,2,西
637300,桂高校前,桂高校前(南行),,かつらこうこうまえ,Katsura Koko-mae,桂高中前,桂高校前,가쓰라코코마에,1,2,西
637400,桂高校前,桂高校前(北行),,かつらこうこうまえ,Katsura Koko-mae,桂高中前,桂高校前,가쓰라코코마에,1,2,西
638100,桂小橋,桂小橋(東行),,かつらこばし,Katsura Kobashi,桂小桥,桂小橋,가쓰라코바시,0,1.5,右
638200,桂小橋,桂小橋(西行),,かつらこばし,Katsura Kobashi,桂小桥,桂小橋,가쓰라코바시,0,1.5,右
663100,国道中山,国道中山(東行),,こくどうなかやま,Kokudo Nakayama,国道中山,國道中山,고쿠도나카야마,1,3,西
663200,国道中山,国道中山(西行),,こくどうなかやま,Kokudo Nakayama,国道中山,國道中山,고쿠도나카야마,1,3,西
664100,国道塚原,国道塚原(東行),,こくどうつかはら,Kokudo Tsukahara,国道冢原,國道塚原,고쿠도쓰카하라,1,3,西
664200,国道塚原,国道塚原(西行),,こくどうつかはら,Kokudo Tsukahara,国道冢原,國道塚原,고쿠도쓰카하라,1,3,西
665100,向日回生病院前,向日回生病院前(東行),,むこうかいせいびょういんまえ,Muko Kaisei Byoin-mae (Muko Kaisei Hospital),向日回生病院前（向日回生医院）,向日回生病院前（向日回生醫院）,무코카이세이뵤인마에（무코카이세이병원）,1,2.5,向
665200,向日回生病院前,向日回生病院前(西行),,むこうかいせいびょういんまえ,Muko Kaisei Byoin-mae (Muko Kaisei Hospital),向日回生病院前（向日回生医院）,向日回生病院前（向日回生醫院）,무코카이세이뵤인마에（무코카이세이병원）,1,2.5,向
672300,南春日町,南春日町(バス停),,みなみかすがちょう,Minamikasugacho,南春日町,南春日町,미나미카스가초,1,3,西
679100,伊織町,伊織町(東行),,いおりちょう,Ioricho,伊织町,伊織町,이오리초,0,1,左
679200,伊織町,伊織町(西行),,いおりちょう,Ioricho,伊织町,伊織町,이오리초,0,1,左
680100,高原町,高原町(東行),,たかはらちょう,Takaharacho,高原町,高原町,다카하라초,0,1,左
680200,高原町,高原町(西行),,たかはらちょう,Takaharacho,高原町,高原町,다카하라초,0,1,左
681100,物集女,物集女(東行),,もずめ,Mozume,物集女,物集女,모즈메,1,2,向
681200,物集女,物集女(西行),,もずめ,Mozume,物集女,物集女,모즈메,1,2,向
681400,物集女,物集女(北行),,もずめ,Mozume,物集女,物集女,모즈메,1,2,向
682300,史跡公園前,史跡公園前(南行),,しせきこうえんまえ,Shiseki Koen-mae,史迹公园前,史跡公園前,시세키코엔마에,1,2,西
682400,史跡公園前,史跡公園前(北行),,しせきこうえんまえ,Shiseki Koen-mae,史迹公园前,史跡公園前,시세키코엔마에,1,2,西
683300,平田町,平田町(南行),,ひらたちょう,Hiratacho,平田町,平田町,히라타초,1,2,西
683400,平田町,平田町(北行),,ひらたちょう,Hiratacho,平田町,平田町,히라타초,1,2,西
684300,月見ヶ丘,月見ヶ丘(南行),,つきみがおか,Tsukimigaoka,月见丘,月見丘,쓰키미가오카,1,2,西
684400,月見ヶ丘,月見ヶ丘(北行),,つきみがおか,Tsukimigaoka,月见丘,月見丘,쓰키미가오카,1,2,西
685100,上桂駅前,上桂駅前(東行),,かみかつらえきまえ,Kamikatsura Station,上桂站前,上桂車站前,가미카쓰라에키마에,1,2,西
685200,上桂駅前,上桂駅前(西行),,かみかつらえきまえ,Kamikatsura Station,上桂站前,上桂車站前,가미카쓰라에키마에,1,2,西
686100,上桂西居町,上桂西居町(東行),,かみかつらにしいちょう,Kamikatsura Nishiicho,上桂西居町,上桂西居町,가미카쓰라니시이초,1,2,西
686200,上桂西居町,上桂西居町(西行),,かみかつらにしいちょう,Kamikatsura Nishiicho,上桂西居町,上桂西居町,가미카쓰라니시이초,1,2,西
687100,上野橋,上野橋(東行),,かみのばし,Kaminobashi,上野桥,上野橋,가미노바시,0,1,西
687200,上野橋,上野橋(西行),,かみのばし,Kaminobashi,上野桥,上野橋,가미노바시,0,1,西
688300,北ノ口,北ノ口(南行),,きたのぐち,Kitanoguchi,北之口,北之口,기타노구치,1,2,向
688400,北ノ口,北ノ口(北行),,きたのぐち,Kitanoguchi,北之口,北之口,기타노구치,1,2,向
689300,梅津石灘町,梅津石灘町(南行),,うめづいしなだちょう,Umezu Ishinadacho,梅津石滩町,梅津石灘町,우메즈이시나다초,0,1,右
689400,梅津石灘町,梅津石灘町(北行),,うめづいしなだちょう,Umezu Ishinadacho,梅津石滩町,梅津石灘町,우메즈이시나다초,0,1,右
690100,桂川小学校前,桂川小学校前(東行),,かつらがわしょうがっこうまえ,Katsuragawa Shogakko-mae,桂川小学校前,桂川小學校前,가쓰라가와쇼갓코마에,0,1.5,西
690200,桂川小学校前,桂川小学校前(西行),,かつらがわしょうがっこうまえ,Katsuragawa Shogakko-mae,桂川小学校前,桂川小學校前,가쓰라가와쇼갓코마에,0,1.5,西
690300,桂川小学校前,桂川小学校前(南行),,かつらがわしょうがっこうまえ,Katsuragawa Shogakko-mae,桂川小学校前,桂川小學校前,가쓰라가와쇼갓코마에,0,1.5,西
690400,桂川小学校前,桂川小学校前(北行),B,かつらがわしょうがっこうまえ,Katsuragawa Shogakko-mae,桂川小学校前,桂川小學校前,가쓰라가와쇼갓코마에,0,1.5,西
699400,京大病院前,京大病院前(北行),,きょうだいびょういんまえ,Kyodai Byoin-mae (Kyoto University Hospital),京大病院前（京都大学医学院附属医院）,京大病院前（京都大學醫學院附屬醫院）,교다이뵤인마에（교토대학 의학부 부속병원）,0,1,左
704100,松ヶ崎駅前,松ヶ崎駅前(東行),A,まつがさきえきまえ,Matsugasaki Station,松崎站前,松崎車站前,마쓰가사키에키마에,0,1,左
704200,松ヶ崎駅前,松ヶ崎駅前(西行),B,まつがさきえきまえ,Matsugasaki Station,松崎站前,松崎車站前,마쓰가사키에키마에,0,1,左
705100,御陵町,御陵町(東行),,ごりょうちょう,Goryocho,御陵町,御陵町,고료초,1,2,西
705200,御陵町,御陵町(西行),,ごりょうちょう,Goryocho,御陵町,御陵町,고료초,1,2,西
706100,国道三ノ宮,国道三ノ宮(東行),,こくどうさんのみや,Kokudo Sannomiya,国道三之宫,國道三之宮,고쿠도산노미야,1,2.5,西
706200,国道三ノ宮,国道三ノ宮(西行),,こくどうさんのみや,Kokudo Sannomiya,国道三之宫,國道三之宮,고쿠도산노미야,1,2.5,西
707000,北大路バスターミナル（地下鉄北大路駅）,北大路バスターミナル（地下鉄北大路駅）(バス停),,きたおおじばすたーみなる（ちかてつきたおおじえき）,Kitaoji Bus Terminal (Subway Kitaoji Station),北大路巴士总站（地铁北大路站）,北大路巴士總站（地下鐵北大路車站）,기타오지바스타미나루（지하철 기타오지역）,0,1,北
707001,北大路バスターミナル（地下鉄北大路駅）,北大路バスターミナル(おりば),,きたおおじばすたーみなる（ちかてつきたおおじえき）,Kitaoji Bus Terminal (Subway Kitaoji Station),北大路巴士总站（地铁北大路站）,北大路巴士總站（地下鐵北大路車站）,기타오지바스타미나루（지하철 기타오지역）,0,1,北
707110,北大路バスターミナル（地下鉄北大路駅）,北大路バスターミナル（地下鉄北大路駅）A,A,きたおおじばすたーみなる（ちかてつきたおおじえき）,Kitaoji Bus Terminal (Subway Kitaoji Station),北大路巴士总站（地铁北大路站）,北大路巴士總站（地下鐵北大路車站）,기타오지바스타미나루（지하철 기타오지역）,0,1,北
707120,北大路バスターミナル（地下鉄北大路駅）,北大路バスターミナル（地下鉄北大路駅）B,B,きたおおじばすたーみなる（ちかてつきたおおじえき）,Kitaoji Bus Terminal (Subway Kitaoji Station),北大路巴士总站（地铁北大路站）,北大路巴士總站（地下鐵北大路車站）,기타오지바스타미나루（지하철 기타오지역）,0,1,北
707130,北大路バスターミナル（地下鉄北大路駅）,北大路バスターミナル（地下鉄北大路駅）C,C,きたおおじばすたーみなる（ちかてつきたおおじえき）,Kitaoji Bus Terminal (Subway Kitaoji Station),北大路巴士总站（地铁北大路站）,北大路巴士總站（地下鐵北大路車站）,기타오지바스타미나루（지하철 기타오지역）,0,1,北
707210,北大路バスターミナル（地下鉄北大路駅）,北大路バスターミナル（地下鉄北大路駅）E,E,きたおおじばすたーみなる（ちかてつきたおおじえき）,Kitaoji Bus Terminal (Subway Kitaoji Station),北大路巴士总站（地铁北大路站）,北大路巴士總站（地下鐵北大路車站）,기타오지바스타미나루（지하철 기타오지역）,0,1,北
707220,北大路バスターミナル（地下鉄北大路駅）,北大路バスターミナル（地下鉄北大路駅）F,F,きたおおじばすたーみなる（ちかてつきたおおじえき）,Kitaoji Bus Terminal (Subway Kitaoji Station),北大路巴士总站（地铁北大路站）,北大路巴士總站（地下鐵北大路車站）,기타오지바스타미나루（지하철 기타오지역）,0,1,北
707230,北大路バスターミナル（地下鉄北大路駅）,北大路バスターミナル（地下鉄北大路駅）G,G,きたおおじばすたーみなる（ちかてつきたおおじえき）,Kitaoji Bus Terminal (Subway Kitaoji Station),北大路巴士总站（地铁北大路站）,北大路巴士總站（地下鐵北大路車站）,기타오지바스타미나루（지하철 기타오지역）,0,1,北
708100,上賀茂橋,上賀茂橋(東行),,かみがもばし,Kamigamobashi,上贺茂桥,上賀茂橋,가미가모바시,0,1,北
708200,上賀茂橋,上賀茂橋(西行),,かみがもばし,Kamigamobashi,上贺茂桥,上賀茂橋,가미가모바시,0,1,北
708300,上賀茂橋,上賀茂橋(南行),,かみがもばし,Kamigamobashi,上贺茂桥,上賀茂橋,가미가모바시,0,1,北
708400,上賀茂橋,上賀茂橋(北行),,かみがもばし,Kamigamobashi,上贺茂桥,上賀茂橋,가미가모바시,0,1,北
709300,山越東町,山越東町(南行),,やまごえひがしちょう,Yamagoe Higashicho,山越东町,山越東町,야마고에히가시초,0,1,右
709400,山越東町,山越東町(北行),,やまごえひがしちょう,Yamagoe Higashicho,山越东町,山越東町,야마고에히가시초,0,1,右
710300,七瀬川町,七瀬川町(南行),,ななせがわちょう,Nanasegawacho,七濑川町,七瀨川町,나나세가와초,0,1,伏
710400,七瀬川町,七瀬川町(北行),,ななせがわちょう,Nanasegawacho,七濑川町,七瀨川町,나나세가와초,0,1,伏
711300,竹田城南宮道,竹田城南宮道(南行),,たけだじょうなんぐうみち,Takeda Jonangu-michi,竹田城南宫道,竹田城南宮道,다케다조난구미치,0,1,伏
711400,竹田城南宮道,竹田城南宮道(北行),,たけだじょうなんぐうみち,Takeda Jonangu-michi,竹田城南宫道,竹田城南宮道,다케다조난구미치,0,1,伏
712300,西墨染通,西墨染通(南行),,にしすみぞめどおり,Nishi-Sumizomedori,西墨染通,西墨染通,니시스미조메도오리,0,1,伏
712400,西墨染通,西墨染通(北行),,にしすみぞめどおり,Nishi-Sumizomedori,西墨染通,西墨染通,니시스미조메도오리,0,1,伏
713300,棒鼻,棒鼻(南行),,ぼうばな,Bobana,棒鼻,棒鼻,보바나,0,1,伏
713400,棒鼻,棒鼻(北行),,ぼうばな,Bobana,棒鼻,棒鼻,보바나,0,1,伏
714300,住吉,住吉(南行),,すみよし,Sumiyoshi,住吉,住吉,스미요시,0,1,伏
714400,住吉,住吉(北行),,すみよし,Sumiyoshi,住吉,住吉,스미요시,0,1,伏
715300,西丹波橋,西丹波橋(南行),,にしたんばばし,Nishi-Tanbabashi,西丹波桥,西丹波橋,니시탄바바시,0,1,伏
715400,西丹波橋,西丹波橋(北行),,にしたんばばし,Nishi-Tanbabashi,西丹波桥,西丹波橋,니시탄바바시,0,1,伏
716100,肥後町,肥後町(東行),,ひごまち,Higomachi,肥后町,肥後町,히고마치,0,1,伏
716400,肥後町,肥後町(北行),,ひごまち,Higomachi,肥后町,肥後町,히고마치,0,1,伏
717100,太秦映画村道,太秦映画村道(東行),,うずまさえいがむらみち,Uzumasa Eigamura-michi,太秦映画村道,太秦映畫村道,우즈마사에이가무라미치,0,1,右
717200,太秦映画村道,太秦映画村道(西行),B,うずまさえいがむらみち,Uzumasa Eigamura-michi,太秦映画村道,太秦映畫村道,우즈마사에이가무라미치,0,1,右
718100,常盤・嵯峨野高校前,常盤・嵯峨野高校前(東行),,ときわ・さがのこうこうまえ,Tokiwa Sagano Koko-mae,常盘・嵯峨野高中前,常盤・嵯峨野高校前,도키와・사가노코코마에,0,1,右
718200,常盤・嵯峨野高校前,常盤・嵯峨野高校前(西行),,ときわ・さがのこうこうまえ,Tokiwa Sagano Koko-mae,常盘・嵯峨野高中前,常盤・嵯峨野高校前,도키와・사가노코코마에,0,1,右
719100,常磐野小学校前,常磐野小学校前(東行),,ときわのしょうがっこうまえ,Tokiwano Shogakko-mae,常磐野小学校前,常磐野小學校前,도키와노쇼갓코마에,0,1,右
719200,常磐野小学校前,常磐野小学校前(西行),,ときわのしょうがっこうまえ,Tokiwano Shogakko-mae,常磐野小学校前,常磐野小學校前,도키와노쇼갓코마에,0,1,右
720100,太秦北路町,太秦北路町(東行),,うずまさきたろちょう,Uzumasa Kitarocho,太秦北路町,太秦北路町,우즈마사키타로초,0,1,右
720200,太秦北路町,太秦北路町(西行),,うずまさきたろちょう,Uzumasa Kitarocho,太秦北路町,太秦北路町,우즈마사키타로초,0,1,右
721100,太秦開日町,太秦開日町(東行),,うずまさかいにちちょう,Uzumasa Kainichicho,太秦开日町,太秦開日町,우즈마사카이니치초,0,1,右
721200,太秦開日町,太秦開日町(西行),B,うずまさかいにちちょう,Uzumasa Kainichicho,太秦开日町,太秦開日町,우즈마사카이니치초,0,1,右
722100,広沢御所ノ内町,広沢御所ノ内町(東行),A,ひろさわごしょのうちちょう,Hirosawa Goshonouchicho,广泽御所之内町,廣澤御所之內町,히로사와고쇼노우치초,0,1,右
722200,広沢御所ノ内町,広沢御所ノ内町(西行),,ひろさわごしょのうちちょう,Hirosawa Goshonouchicho,广泽御所之内町,廣澤御所之內町,히로사와고쇼노우치초,0,1,右
723100,嵯峨中学前,嵯峨中学前(東行),,さがちゅうがくまえ,Saga Chugaku-mae,嵯峨中学前,嵯峨中學前,사가추가쿠마에,0,1,右
723200,嵯峨中学前,嵯峨中学前(西行),,さがちゅうがくまえ,Saga Chugaku-mae,嵯峨中学前,嵯峨中學前,사가추가쿠마에,0,1,右
724100,嵯峨瀬戸川町,嵯峨瀬戸川町(東行),,さがせとがわちょう,Saga Setogawacho,嵯峨濑户川町,嵯峨瀨戶川町,사가세토가와초,0,1,右
724200,嵯峨瀬戸川町,嵯峨瀬戸川町(西行),,さがせとがわちょう,Saga Setogawacho,嵯峨濑户川町,嵯峨瀨戶川町,사가세토가와초,0,1,右
725100,北白川,北白川(東行),,きたしらかわ,Kitashirakawa,北白川,北白川,기타시라카와,0,1,左
725200,北白川,北白川(西行),,きたしらかわ,Kitashirakawa,北白川,北白川,기타시라카와,0,1,左
726100,京大農学部前,京大農学部前(東行),A,きょうだいのうがくぶまえ,Kyodai Nogakubu-mae,京大农学部前,京大農學部前,교다이노가쿠부마에,0,1,左
726200,京大農学部前,京大農学部前(西行),,きょうだいのうがくぶまえ,Kyodai Nogakubu-mae,京大农学部前,京大農學部前,교다이노가쿠부마에,0,1,左
727100,嵯峨嵐山駅前,嵯峨嵐山駅前(東行),,さがあらしやまえきまえ,Saga Arashiyama Station,嵯峨岚山站前,嵯峨嵐山車站前,사가아라시야마에키마에,0,1,右
727200,嵯峨嵐山駅前,嵯峨嵐山駅前(西行),,さがあらしやまえきまえ,Saga Arashiyama Station,嵯峨岚山站前,嵯峨嵐山車站前,사가아라시야마에키마에,0,1,右
731100,九条七本松,九条七本松(東行),,くじょうしちほんまつ,Kujo Shichihonmatsu,九条七本松,九条七本松,구조시치혼마쓰,0,1,南
731200,九条七本松,九条七本松(西行),,くじょうしちほんまつ,Kujo Shichihonmatsu,九条七本松,九条七本松,구조시치혼마쓰,0,1,南
742300,山ノ前町,山ノ前町(南行),,やまのまえちょう,Yamanomaecho,山之前町,山之前町,야마노마에초,0,1,北
742400,山ノ前町,山ノ前町(北行),,やまのまえちょう,Yamanomaecho,山之前町,山之前町,야마노마에초,0,1,北
743100,上賀茂豊田町,上賀茂豊田町(東行),,かみがもとよだちょう,Kamigamo Toyodacho,上贺茂丰田町,上賀茂豐田町,가미가모토요다초,0,1,北
743200,上賀茂豊田町,上賀茂豊田町(西行),,かみがもとよだちょう,Kamigamo Toyodacho,上贺茂丰田町,上賀茂豐田町,가미가모토요다초,0,1,北
744300,上賀茂松本町,上賀茂松本町(南行),,かみがもまつもとちょう,Kamigamo Matsumotocho,上贺茂松本町,上賀茂松本町,가미가모마쓰모토초,0,1,北
744400,上賀茂松本町,上賀茂松本町(北行),,かみがもまつもとちょう,Kamigamo Matsumotocho,上贺茂松本町,上賀茂松本町,가미가모마쓰모토초,0,1,北
745100,上賀茂小学校前,上賀茂小学校前(東行),,かみがもしょうがっこうまえ,Kamigamo Shogakko-mae,上贺茂小学校前,上賀茂小學校前,가미가모쇼갓코마에,0,1,北
745200,上賀茂小学校前,上賀茂小学校前(西行),,かみがもしょうがっこうまえ,Kamigamo Shogakko-mae,上贺茂小学校前,上賀茂小學校前,가미가모쇼갓코마에,0,1,北
748100,下三栖,下三栖(東行),,しもみす,Shimomisu,下三栖,下三栖,시모미스,1,1,伏
748200,下三栖,下三栖(西行),,しもみす,Shimomisu,下三栖,下三栖,시모미스,1,1,伏
749001,横大路車庫前,横大路車庫前(おりば),,よこおおじしゃこまえ,Yokooji Shako-mae,横大路车库前,橫大路車庫前,요코오지샤코마에,1,1,伏
749100,横大路車庫前,横大路車庫前(東行),,よこおおじしゃこまえ,Yokooji Shako-mae,横大路车库前,橫大路車庫前,요코오지샤코마에,1,1,伏
750300,免許試験場前,免許試験場前(南行),,めんきょしけんじょうまえ,Menkyo Shikenjo-mae,免许试验场前（驾照考场）,免許試驗場前（駕照考場）,멘쿄시켄조마에,0,1,伏
750410,免許試験場前,免許試験場前(北行北詰),,めんきょしけんじょうまえ,Menkyo Shikenjo-mae,免许试验场前（驾照考场）,免許試驗場前（駕照考場）,멘쿄시켄조마에,0,1,伏
750420,免許試験場前,免許試験場前(北行南詰),,めんきょしけんじょうまえ,Menkyo Shikenjo-mae,免许试验场前（驾照考场）,免許試驗場前（駕照考場）,멘쿄시켄조마에,0,1,伏
751300,南横大路（さすてな京都）,南横大路(南行),,みなみよこおおじ（さすてなきょうと）,Minami-Yokooji (SUSTAINA KYOTO),南横大路（SUSTAINA京都）,南橫大路（SUSTAINA京都）,미나미요코오지（사스테나쿄토）,1,1,伏
751400,南横大路（さすてな京都）,南横大路(北行),,みなみよこおおじ（さすてなきょうと）,Minami-Yokooji (SUSTAINA KYOTO),南横大路（SUSTAINA京都）,南橫大路（SUSTAINA京都）,미나미요코오지（사스테나쿄토）,1,1,伏
752100,角倉町,角倉町(東行),,すみのくらちょう,Suminokuracho,角仓町,角倉町,스미노쿠라초,0,1,右
753100,馬塚町,馬塚町(東行),,うまつかちょう,Umatsukacho,马冢町,馬塚町,우마쓰카초,0,1,右
753200,馬塚町,馬塚町(西行),,うまつかちょう,Umatsukacho,马冢町,馬塚町,우마쓰카초,0,1,右
761300,洛水高校前,洛水高校前(南行),,らくすいこうこうまえ,Rakusui Koko-mae,洛水高中前,洛水高校前,라쿠스이코코마에,1,1,伏
761400,洛水高校前,洛水高校前(北行),,らくすいこうこうまえ,Rakusui Koko-mae,洛水高中前,洛水高校前,라쿠스이코코마에,1,1,伏
765100,花園扇野町,花園扇野町(東行),A,はなぞのおうぎのちょう,Hanazono Oginocho,花园扇野町,花園扇野町,하나조노오기노초,0,1,右
765200,花園扇野町,花園扇野町(西行),B,はなぞのおうぎのちょう,Hanazono Oginocho,花园扇野町,花園扇野町,하나조노오기노초,0,1,右
766100,原谷,原谷(バス停),,はらだに,Haradani,原谷,原谷,하라다니,0,1,右
767100,原谷口,原谷口(東行),,はらだにぐち,Haradani-guchi,原谷口,原谷口,하라다니구치,0,1,北
767200,原谷口,原谷口(西行),,はらだにぐち,Haradani-guchi,原谷口,原谷口,하라다니구치,0,1,北
768300,立命館西園寺記念館前,立命館西園寺記念館前(南行),,りつめいかんさいおんじきねんかんまえ,Ritsumeikan Saionjikinenkan-mae,立命馆西园寺纪念馆前,立命館西園寺記念館前,리쓰메이칸사이온지키넨칸마에,0,1,北
768400,立命館西園寺記念館前,立命館西園寺記念館前(北行),,りつめいかんさいおんじきねんかんまえ,Ritsumeikan Saionjikinenkan-mae,立命馆西园寺纪念馆前,立命館西園寺記念館前,리쓰메이칸사이온지키넨칸마에,0,1,北
769100,原谷農協前,原谷農協前(バス停),,はらだにのうきょうまえ,Haradani Nokyo-mae,原谷农协前,原谷農協前,하라다니노쿄마에,0,1,北
770300,吉祥院宮ノ西町,吉祥院宮ノ西町(南行),,きっしょういんみやのにしちょう,Kisshoin Miyanonishicho,吉祥院宫之西町,吉祥院宮之西町,깃쇼인미야노니시초,0,1,南
770400,吉祥院宮ノ西町,吉祥院宮ノ西町(北行),B,きっしょういんみやのにしちょう,Kisshoin Miyanonishicho,吉祥院宫之西町,吉祥院宮之西町,깃쇼인미야노니시초,0,1,南
771300,吉祥院壱ノ段町,吉祥院壱ノ段町(南行),,きっしょういんいちのだんちょう,Kisshoin Ichinodancho,吉祥院壱之段町,吉祥院壱之段町,깃쇼인이치노단초,0,1,南
771400,吉祥院壱ノ段町,吉祥院壱ノ段町(北行),,きっしょういんいちのだんちょう,Kisshoin Ichinodancho,吉祥院壱之段町,吉祥院壱之段町,깃쇼인이치노단초,0,1,南
772300,葛野大路九条,葛野大路九条(南行),A,かどのおおじくじょう,Kadonooji Kujo,葛野大路九条,葛野大路九条,가도노오지쿠조,0,1,南
772400,葛野大路九条,葛野大路九条(北行),B,かどのおおじくじょう,Kadonooji Kujo,葛野大路九条,葛野大路九条,가도노오지쿠조,0,1,南
773400,西板橋,西板橋(北行),,にしいたばし,Nishi-Itabashi,西板桥,西板橋,니시이타바시,0,1,伏
774300,二条駅西口,二条駅西口(南行),,にじょうえきにしぐち,Nijo Station (Nishiguchi),二条站西口,二条車站西口,니조에키니시구치,0,1,中
775300,衣笠氷室町,衣笠氷室町(南行),,きぬがさひむろちょう,Kinugasa Himurocho,衣笠冰室町,衣笠氷室町,기누가사히무로초,0,1,北
775400,衣笠氷室町,衣笠氷室町(北行),,きぬがさひむろちょう,Kinugasa Himurocho,衣笠冰室町,衣笠氷室町,기누가사히무로초,0,1,北
776300,小畑川公園北口,小畑川公園北口(南行),A,おばたがわこうえんきたぐち,Obatagawa Koen Kitaguchi,小畑川公园北口,小畑川公園北口,오바타가와코엔키타구치,1,3,西
776400,小畑川公園北口,小畑川公園北口(北行),,おばたがわこうえんきたぐち,Obatagawa Koen Kitaguchi,小畑川公园北口,小畑川公園北口,오바타가와코엔키타구치,1,3,西
777100,新林公団住宅前,新林公団住宅前(東行),,しんばやしこうだんじゅうたくまえ,Shinbayashi Kodanjutaku-mae,新林公团住宅前,新林公團住宅前,신바야시코단주타쿠마에,1,3,西
777200,新林公団住宅前,新林公団住宅前(西行),,しんばやしこうだんじゅうたくまえ,Shinbayashi Kodanjutaku-mae,新林公团住宅前,新林公團住宅前,신바야시코단주타쿠마에,1,3,西
778300,新林センター前,新林センター前(南行),,しんばやしせんたーまえ,Shinbayashi Center-mae,新林Center前（新林中心）,新林Center前（新林中心）,신바야시센타마에,1,3,西
778400,新林センター前,新林センター前(北行),,しんばやしせんたーまえ,Shinbayashi Center-mae,新林Center前（新林中心）,新林Center前（新林中心）,신바야시센타마에,1,3,西
779300,新林池公園,新林池公園(南行),,しんばやしいけこうえん,Shinbayashiike Koen,新林池公园,新林池公園,신바야시이케코엔,1,3,西
779400,新林池公園,新林池公園(北行),,しんばやしいけこうえん,Shinbayashiike Koen,新林池公园,新林池公園,신바야시이케코엔,1,3,西
780100,新林中通,新林中通(東行),,しんばやしなかどおり,Shinbayashi Nakadori,新林中通,新林中通,신바야시나카도오리,1,3,西
780200,新林中通,新林中通(西行),,しんばやしなかどおり,Shinbayashi Nakadori,新林中通,新林中通,신바야시나카도오리,1,3,西
781300,東新林町,東新林町(南行),,ひがししんばやしちょう,Higashishinbayashicho,东新林町,東新林町,히가시신바야시초,1,3,西
781400,東新林町,東新林町(北行),,ひがししんばやしちょう,Higashishinbayashicho,东新林町,東新林町,히가시신바야시초,1,3,西
782300,葛野大路高辻,葛野大路高辻(南行),A,かどのおおじたかつじ,Kadonooji Takatsuji,葛野大路高辻,葛野大路高辻,가도노오지타카쓰지,0,1,右
782400,葛野大路高辻,葛野大路高辻(北行),,かどのおおじたかつじ,Kadonooji Takatsuji,葛野大路高辻,葛野大路高辻,가도노오지타카쓰지,0,1,右
783300,鳥羽大橋北詰,鳥羽大橋北詰(南行),,とばおおはしきたづめ,Tobaohashi Kitazume,鸟羽大桥北诘（北侧）,鳥羽大橋北詰（北側）,도바오하시키타즈메,0,1,南
783400,鳥羽大橋北詰,鳥羽大橋北詰(北行),,とばおおはしきたづめ,Tobaohashi Kitazume,鸟羽大桥北诘（北侧）,鳥羽大橋北詰（北側）,도바오하시키타즈메,0,1,南
784300,葛野大路花屋町,葛野大路花屋町(南行),A,かどのおおじはなやちょう,Kadonooji Hanayacho,葛野大路花屋町,葛野大路花屋町,가도노오지하나야초,0,1,右
784400,葛野大路花屋町,葛野大路花屋町(北行),,かどのおおじはなやちょう,Kadonooji Hanayacho,葛野大路花屋町,葛野大路花屋町,가도노오지하나야초,0,1,右
785400,西京極駅前,西京極駅前(バス停),,にしきょうごくえきまえ,Nishikyogoku Station,西京极站前,西京極車站前,니시쿄고쿠에키마에,0,1,右
786100,広沢池・佛大広沢校前,広沢池・佛大広沢校前(東行),,ひろさわのいけ・ぶつだいひろさわこうまえ,Hirosawanoike / Butsudai Hirosawako-mae,广泽池・佛大广泽校前,廣澤池・佛大廣澤校前,히로사와노이케・부쓰다이히로사와코마에,0,1,右
787100,地下鉄十条駅前,地下鉄十条駅前(D),D,ちかてつじゅうじょうえきまえ,Subway Jujo Station,地铁十条站前,地鐵十条車站前,지카테쓰주조에키마에,0,1,南
787200,地下鉄十条駅前,地下鉄十条駅前(C),C,ちかてつじゅうじょうえきまえ,Subway Jujo Station,地铁十条站前,地鐵十条車站前,지카테쓰주조에키마에,0,1,南
787300,地下鉄十条駅前,地下鉄十条駅前(A),A,ちかてつじゅうじょうえきまえ,Subway Jujo Station,地铁十条站前,地鐵十条車站前,지카테쓰주조에키마에,0,1,南
787400,地下鉄十条駅前,地下鉄十条駅前(B),B,ちかてつじゅうじょうえきまえ,Subway Jujo Station,地铁十条站前,地鐵十条車站前,지카테쓰주조에키마에,0,1,南
788300,上里,上里(南行),,かみざと,Kamizato,上里,上里,가미자토,1,3,西
788400,上里,上里(北行),,かみざと,Kamizato,上里,上里,가미자토,1,3,西
789300,樫原鴫谷,樫原鴫谷(南行),,かたぎはらしぎたに,Katagihara Shigitani,樫原鴫谷,樫原鴫谷,가타기하라시기타니,1,3,西
789400,樫原鴫谷,樫原鴫谷(北行),,かたぎはらしぎたに,Katagihara Shigitani,樫原鴫谷,樫原鴫谷,가타기하라시기타니,1,3,西
790300,洛西高校前,洛西高校前(南行),,らくさいこうこうまえ,Rakusai Koko-mae,洛西高中前,洛西高校前,라쿠사이코코마에,1,3,西
790400,洛西高校前,洛西高校前(北行),,らくさいこうこうまえ,Rakusai Koko-mae,洛西高中前,洛西高校前,라쿠사이코코마에,1,3,西
791300,境谷センター前,境谷センター前(南行),,さかいだにせんたーまえ,Sakaidani Center-mae,境谷Center前（境谷中心）,境谷Center前（境谷中心）,사카이다니센타마에,1,3,西
791400,境谷センター前,境谷センター前(北行),,さかいだにせんたーまえ,Sakaidani Center-mae,境谷Center前（境谷中心）,境谷Center前（境谷中心）,사카이다니센타마에,1,3,西
792300,西竹の里町,西竹の里町(南行),,にしたけのさとちょう,Nishitakenosatocho,西竹之里町,西竹之里町,니시타케노사토초,1,3,西
792400,西竹の里町,西竹の里町(北行),,にしたけのさとちょう,Nishitakenosatocho,西竹之里町,西竹之里町,니시타케노사토초,1,3,西
793100,北福西町一丁目,北福西町一丁目(東行),,きたふくにしちょういっちょうめ,Kitafukunishicho 1(ichi)-chome,北福西町一丁目,北福西町一丁目,기타후쿠니시초잇초메,1,3,西
793200,北福西町一丁目,北福西町一丁目(西行),,きたふくにしちょういっちょうめ,Kitafukunishicho 1(ichi)-chome,北福西町一丁目,北福西町一丁目,기타후쿠니시초잇초메,1,3,西
794100,三ノ宮街道,三ノ宮街道(東行),,さんのみやかいどう,Sannomiyakaido,三之宫街道,三之宮街道,산노미야카이도,1,2.5,西
794200,三ノ宮街道,三ノ宮街道(西行),,さんのみやかいどう,Sannomiyakaido,三之宫街道,三之宮街道,산노미야카이도,1,2.5,西
795100,樫原水築町,樫原水築町(東行),,かたぎはらみずつきちょう,Katagihara Mizutsukicho,樫原水筑町,樫原水築町,가타기하라미즈쓰키초,1,2,西
795200,樫原水築町,樫原水築町(西行),,かたぎはらみずつきちょう,Katagihara Mizutsukicho,樫原水筑町,樫原水築町,가타기하라미즈쓰키초,1,2,西
796100,樫原小学校前,樫原小学校前(東行),,かたぎはらしょうがっこうまえ,Katagihara Shogakko-mae,樫原小学校前,樫原小學校前,가타기하라쇼갓코마에,1,2,西
796200,樫原小学校前,樫原小学校前(西行),,かたぎはらしょうがっこうまえ,Katagihara Shogakko-mae,樫原小学校前,樫原小學校前,가타기하라쇼갓코마에,1,2,西
797100,野田町,野田町(東行),,のだちょう,Nodacho,野田町,野田町,노다초,1,2,西
797200,野田町,野田町(西行),,のだちょう,Nodacho,野田町,野田町,노다초,1,2,西
798001,桂駅西口,桂駅西口(おりば),,かつらえきにしぐち,Katsura Station (Nishiguchi),桂站西口,桂車站西口,가쓰라에키니시구치,1,2,西
798310,桂駅西口,桂駅西口(1),1,かつらえきにしぐち,Katsura Station (Nishiguchi),桂站西口,桂車站西口,가쓰라에키니시구치,1,2,西
798320,桂駅西口,桂駅西口(2),2,かつらえきにしぐち,Katsura Station (Nishiguchi),桂站西口,桂車站西口,가쓰라에키니시구치,1,2,西
798330,桂駅西口,桂駅西口(3),3,かつらえきにしぐち,Katsura Station (Nishiguchi),桂站西口,桂車站西口,가쓰라에키니시구치,1,2,西
799100,境谷大橋,境谷大橋(東行),,さかいだにおおはし,Sakaidani Ohashi,境谷大桥,境谷大橋,사카이다니오하시,1,3,西
799200,境谷大橋,境谷大橋(西行),,さかいだにおおはし,Sakaidani Ohashi,境谷大桥,境谷大橋,사카이다니오하시,1,3,西
800100,京都明徳高校前,京都明徳高校前(東行),,きょうとめいとくこうこうまえ,Kyoto Meitoku Koko-mae,京都明德高中前,京都明徳高校前,교토메이토쿠코코마에,1,3,西
800200,京都明徳高校前,京都明徳高校前(西行),,きょうとめいとくこうこうまえ,Kyoto Meitoku Koko-mae,京都明德高中前,京都明徳高校前,교토메이토쿠코코마에,1,3,西
801001,洛西バスターミナル,洛西バスターミナル(おりば),,らくさいばすたーみなる,Rakusai Bus Terminal,洛西巴士总站,洛西巴士總站,라쿠사이바스타미나루,1,3,西
801110,洛西バスターミナル,洛西バスターミナル(1),1,らくさいばすたーみなる,Rakusai Bus Terminal,洛西巴士总站,洛西巴士總站,라쿠사이바스타미나루,1,3,西
801120,洛西バスターミナル,洛西バスターミナル(2),2,らくさいばすたーみなる,Rakusai Bus Terminal,洛西巴士总站,洛西巴士總站,라쿠사이바스타미나루,1,3,西
801130,洛西バスターミナル,洛西バスターミナル(3),3,らくさいばすたーみなる,Rakusai Bus Terminal,洛西巴士总站,洛西巴士總站,라쿠사이바스타미나루,1,3,西
801140,洛西バスターミナル,洛西バスターミナル(4),4,らくさいばすたーみなる,Rakusai Bus Terminal,洛西巴士总站,洛西巴士總站,라쿠사이바스타미나루,1,3,西
802300,東竹の里橋,東竹の里橋(南行),,ひがしたけのさとはし,Higashitakenosatohashi,东竹之里桥,東竹之里橋,히가시타케노사토하시,1,3,西
802400,東竹の里橋,東竹の里橋(北行),,ひがしたけのさとはし,Higashitakenosatohashi,东竹之里桥,東竹之里橋,히가시타케노사토하시,1,3,西
803100,東竹の里町,東竹の里町(東行),A,ひがしたけのさとちょう,Higashitakenosatocho,东竹之里町,東竹之里町,히가시타케노사토초,1,3,西
803200,東竹の里町,東竹の里町(西行),,ひがしたけのさとちょう,Higashitakenosatocho,东竹之里町,東竹之里町,히가시타케노사토초,1,3,西
804300,福西遺跡公園前,福西遺跡公園前(南行),,ふくにしいせきこうえんまえ,Fukunishi Isekikoen-mae,福西遗迹公园前,福西遺跡公園前,후쿠니시이세키코엔마에,1,3,西
804400,福西遺跡公園前,福西遺跡公園前(北行),,ふくにしいせきこうえんまえ,Fukunishi Isekikoen-mae,福西遗迹公园前,福西遺跡公園前,후쿠니시이세키코엔마에,1,3,西
805300,洛西大橋,洛西大橋(南行),,らくさいおおはし,Rakusai Ohashi,洛西大桥,洛西大橋,라쿠사이오하시,1,3,西
805400,洛西大橋,洛西大橋(北行),,らくさいおおはし,Rakusai Ohashi,洛西大桥,洛西大橋,라쿠사이오하시,1,3,西
806300,中央公園南口,中央公園南口(南行),,ちゅうおうこうえんみなみぐち,Chuokoen Minamiguchi,中央公园南口,中央公園南口,주오코엔미나미구치,1,3,西
806400,中央公園南口,中央公園南口(北行),,ちゅうおうこうえんみなみぐち,Chuokoen Minamiguchi,中央公园南口,中央公園南口,주오코엔미나미구치,1,3,西
807100,南福西町三丁目,南福西町三丁目(東行),,みなみふくにしちょうさんちょうめ,Minamifukunishicho 3(san)-chome,南福西町三丁目,南福西町三丁目,미나미후쿠니시초산초메,1,3,西
807200,南福西町三丁目,南福西町三丁目(西行),B,みなみふくにしちょうさんちょうめ,Minamifukunishicho 3(san)-chome,南福西町三丁目,南福西町三丁目,미나미후쿠니시초산초메,1,3,西
808300,南福西町二丁目,南福西町二丁目(南行),,みなみふくにしちょうにちょうめ,Minamifukunishicho 2(ni)-chome,南福西町二丁目,南福西町二丁目,미나미후쿠니시초니초메,1,3,西
808400,南福西町二丁目,南福西町二丁目(北行),,みなみふくにしちょうにちょうめ,Minamifukunishicho 2(ni)-chome,南福西町二丁目,南福西町二丁目,미나미후쿠니시초니초메,1,3,西
809300,南福西町（竹林公園前）,南福西町（竹林公園前）(南行),A,みなみふくにしちょう（ちくりんこうえんまえ）,Minamifukunishicho (Chikurinkoen-mae),南福西町（竹林公园前）,南福西町（竹林公園前）,미나미후쿠니시초（치쿠린코엔마에）,1,3,西
809400,南福西町（竹林公園前）,南福西町（竹林公園前）(北行),,みなみふくにしちょう（ちくりんこうえんまえ）,Minamifukunishicho (Chikurinkoen-mae),南福西町（竹林公园前）,南福西町（竹林公園前）,미나미후쿠니시초（치쿠린코엔마에）,1,3,西
810300,北福西町,北福西町(南行),,きたふくにしちょう,Kitafukunishicho,北福西町,北福西町,기타후쿠니시초,1,3,西
810400,北福西町,北福西町(北行),,きたふくにしちょう,Kitafukunishicho,北福西町,北福西町,기타후쿠니시초,1,3,西
811300,右京の里,右京の里(南行),,うきょうのさと,Ukyonosato,右京之里,右京之里,우쿄노사토,1,3,西
811400,右京の里,右京の里(北行),,うきょうのさと,Ukyonosato,右京之里,右京之里,우쿄노사토,1,3,西
813300,紅葉町,紅葉町(南行),,もみじちょう,Momijicho,红叶町,紅葉町,모미지초,1,3,西
813400,紅葉町,紅葉町(北行),,もみじちょう,Momijicho,红叶町,紅葉町,모미지초,1,3,西
814100,勝山町,勝山町(東行),,かつやまちょう,Katsuyamacho,胜山町,勝山町,가쓰야마초,1,3,西
814200,勝山町,勝山町(西行),,かつやまちょう,Katsuyamacho,胜山町,勝山町,가쓰야마초,1,3,西
815100,大原野小学校前,大原野小学校前(東行),,おおはらのしょうがっこうまえ,Oharano Shogakko-mae,大原野小学校前,大原野小學校前,오하라노쇼갓코마에,1,3,西
815200,大原野小学校前,大原野小学校前(西行),,おおはらのしょうがっこうまえ,Oharano Shogakko-mae,大原野小学校前,大原野小學校前,오하라노쇼갓코마에,1,3,西
816100,花の舞公園前,花の舞公園前(東行),,はなのまいこうえんまえ,Hananomai Koen-mae,花之舞公园前,花之舞公園前,하나노마이코엔마에,1,3,西
816200,花の舞公園前,花の舞公園前(西行),,はなのまいこうえんまえ,Hananomai Koen-mae,花之舞公园前,花之舞公園前,하나노마이코엔마에,1,3,西
817300,西京極小学校前,西京極小学校前(南行),,にしきょうごくしょうがっこうまえ,Nishikyogoku Shogakko-mae,西京极小学校前,西京極小學校前,니시쿄고쿠쇼갓코마에,0,1,右
817400,西京極小学校前,西京極小学校前(北行),B,にしきょうごくしょうがっこうまえ,Nishikyogoku Shogakko-mae,西京极小学校前,西京極小學校前,니시쿄고쿠쇼갓코마에,0,1,右
818100,久世橋通大宮,久世橋通大宮(東行),,くぜばしどおりおおみや,Kuzebashidori Omiya,久世桥通大宫,久世橋通大宮,구제바시도오리오미야,0,1,南
818200,久世橋通大宮,久世橋通大宮(西行),,くぜばしどおりおおみや,Kuzebashidori Omiya,久世桥通大宫,久世橋通大宮,구제바시도오리오미야,0,1,南
819100,久世橋通油小路,久世橋通油小路(東行),A,くぜばしどおりあぶらのこうじ,Kuzebashidori Aburanokoji,久世桥通油小路,久世橋通油小路,구제바시도오리아부라노코지,0,1,伏
819200,久世橋通油小路,久世橋通油小路(西行),B,くぜばしどおりあぶらのこうじ,Kuzebashidori Aburanokoji,久世桥通油小路,久世橋通油小路,구제바시도오리아부라노코지,0,1,伏
820100,久世橋通新町,久世橋通新町(東行),,くぜばしどおりしんまち,Kuzebashidori Shinmachi,久世桥通新町,久世橋通新町,구제바시도오리신마치,0,1,南
820200,久世橋通新町,久世橋通新町(西行),,くぜばしどおりしんまち,Kuzebashidori Shinmachi,久世桥通新町,久世橋通新町,구제바시도오리신마치,0,1,南
821100,三栖大黒町,三栖大黒町(東行),,みすだいこくちょう,Misu Daikokucho,三栖大黒町,三栖大黒町,미스다이코쿠초,1,1,伏
821200,三栖大黒町,三栖大黒町(西行),,みすだいこくちょう,Misu Daikokucho,三栖大黒町,三栖大黒町,미스다이코쿠초,1,1,伏
822100,小松原児童公園前,小松原児童公園前(東行),,こまつばらじどうこうえんまえ,Komatsubara Jidokoen-mae,小松原儿童公园前,小松原兒童公園前,코마쓰바라지도코엔마에,0,1,北
822200,小松原児童公園前,小松原児童公園前(西行),,こまつばらじどうこうえんまえ,Komatsubara Jidokoen-mae,小松原儿童公园前,小松原兒童公園前,코마쓰바라지도코엔마에,0,1,北
823300,西大路駅前,西大路駅前(南行),A,にしおおじえきまえ,Nishioji Station,西大路站前,西大路車站前,니시오지에키마에,0,1,南
823400,西大路駅前,西大路駅前(北行),B,にしおおじえきまえ,Nishioji Station,西大路站前,西大路車站前,니시오지에키마에,0,1,南
824300,大原野上里北ノ町,大原野上里北ノ町(南行),,おおはらのかみざときたのちょう,Oharano Kamizato Kitanocho,大原野上里北之町,大原野上里北之町,오하라노카미자토키타노초,1,3,西
824400,大原野上里北ノ町,大原野上里北ノ町(北行),,おおはらのかみざときたのちょう,Oharano Kamizato Kitanocho,大原野上里北之町,大原野上里北之町,오하라노카미자토키타노초,1,3,西
825100,樫原塚ノ本町,樫原塚ノ本町(東行),,かたぎはらつかのもとちょう,Katagihara Tsukanomotocho,樫原塚之本町,樫原塚之本町,가타기하라쓰카노모토초,1,2,西
825200,樫原塚ノ本町,樫原塚ノ本町(西行),,かたぎはらつかのもとちょう,Katagihara Tsukanomotocho,樫原塚之本町,樫原塚之本町,가타기하라쓰카노모토초,1,2,西
826100,川島粟田町,川島粟田町(東行),,かわしまあわたちょう,Kawashima Awatacho,川岛粟田町,川島粟田町,가와시마아와타초,1,2,西
826200,川島粟田町,川島粟田町(西行),,かわしまあわたちょう,Kawashima Awatacho,川岛粟田町,川島粟田町,가와시마아와타초,1,2,西
827100,樫原秤谷町,樫原秤谷町(東行),,かたぎはらはかりだにちょう,Katagihara Hakaridanicho,樫原秤谷町,樫原秤谷町,가타기하라하카리다니초,1,3,西
827200,樫原秤谷町,樫原秤谷町(西行),,かたぎはらはかりだにちょう,Katagihara Hakaridanicho,樫原秤谷町,樫原秤谷町,가타기하라하카리다니초,1,3,西
828400,石原団地前,石原団地前(北行),,いしはらだんちまえ,Ishihara Danchi-mae,石原团地前,石原團地前,이시하라단치마에,0,1,南
829200,吉祥院嶋高町,吉祥院嶋高町(西行),,きっしょういんしまたかまち,Kisshoin Shimatakamachi,吉祥院嶋高町,吉祥院嶋高町,깃쇼인시마타카마치,0,1,南
830300,上鳥羽馬廻,上鳥羽馬廻(南行),,かみとばうままわし,Kamitoba Umamawashi,上鸟羽马廻,上鳥羽馬廻,가미토바우마마와시,0,1,南
831300,烏丸下立売,烏丸下立売(南行),,からすましもだちうり,Karasuma Shimodachiuri,乌丸下立卖,烏丸下立賣,가라스마시모다치우리,0,1,上
831400,烏丸下立売,烏丸下立売(北行),,からすましもだちうり,Karasuma Shimodachiuri,乌丸下立卖,烏丸下立賣,가라스마시모다치우리,0,1,上
832100,四条葛野大路,四条葛野大路(B),B,しじょうかどのおおじ,Shijo Kadonooji,四条葛野大路,四条葛野大路,시조카도노오지,0,1,右
832200,四条葛野大路,四条葛野大路(C),C,しじょうかどのおおじ,Shijo Kadonooji,四条葛野大路,四条葛野大路,시조카도노오지,0,1,右
832300,四条葛野大路,四条葛野大路(A),A,しじょうかどのおおじ,Shijo Kadonooji,四条葛野大路,四条葛野大路,시조카도노오지,0,1,右
832400,四条葛野大路,四条葛野大路(D),D,しじょうかどのおおじ,Shijo Kadonooji,四条葛野大路,四条葛野大路,시조카도노오지,0,1,右
836100,松ヶ崎橋,松ヶ崎橋(東行),,まつがさきばし,Matsugasakibashi,松崎桥,松崎橋,마쓰가사키바시,0,1,左
836200,松ヶ崎橋,松ヶ崎橋(西行),B,まつがさきばし,Matsugasakibashi,松崎桥,松崎橋,마쓰가사키바시,0,1,左
837100,松ヶ崎大黒天,松ヶ崎大黒天(東行),,まつがさきだいこくてん,Matsugasaki Daikokuten,松崎大黑天,松崎大黑天,마쓰가사키다이코쿠텐,0,1,左
837200,松ヶ崎大黒天,松ヶ崎大黒天(西行),,まつがさきだいこくてん,Matsugasaki Daikokuten,松崎大黑天,松崎大黑天,마쓰가사키다이코쿠텐,0,1,左
838001,桂坂中央,桂坂中央(おりば),,かつらざかちゅうおう,Katsurazaka-Chuo,桂坂中央,桂坂中央,가쓰라자카추오,1,3,西
838300,桂坂中央,桂坂中央(バス停),,かつらざかちゅうおう,Katsurazaka-Chuo,桂坂中央,桂坂中央,가쓰라자카추오,1,3,西
839110,福西竹の里,福西竹の里(A),A,ふくにしたけのさと,Fukunishi Takenosato,福西竹之里,福西竹之里,후쿠니시타케노사토,1,3,西
839120,福西竹の里,福西竹の里(D),D,ふくにしたけのさと,Fukunishi Takenosato,福西竹之里,福西竹之里,후쿠니시타케노사토,1,3,西
839200,福西竹の里,福西竹の里(B),B,ふくにしたけのさと,Fukunishi Takenosato,福西竹之里,福西竹之里,후쿠니시타케노사토,1,3,西
839400,福西竹の里,福西竹の里(C),C,ふくにしたけのさと,Fukunishi Takenosato,福西竹之里,福西竹之里,후쿠니시타케노사토,1,3,西
840100,西境谷町三丁目,西境谷町三丁目(東行),,にしさかいだにちょうさんちょうめ,Nishisakaidanicho 3(san)-chome,西境谷町三丁目,西境谷町三丁目,니시사카이다니초산초메,1,3,西
840200,西境谷町三丁目,西境谷町三丁目(西行),,にしさかいだにちょうさんちょうめ,Nishisakaidanicho 3(san)-chome,西境谷町三丁目,西境谷町三丁目,니시사카이다니초산초메,1,3,西
841001,岩倉操車場前,岩倉操車場前(おりば),,いわくらそうしゃじょうまえ,Iwakura Soshajo-mae,岩仓操车场前,岩倉操車場前,이와쿠라소샤조마에,0,1,左
841100,岩倉操車場前,岩倉操車場前(東行),,いわくらそうしゃじょうまえ,Iwakura Soshajo-mae,岩仓操车场前,岩倉操車場前,이와쿠라소샤조마에,0,1,左
842100,上鳥羽塔ノ森,上鳥羽塔ノ森(東行),,かみとばとうのもり,Kamitoba Tonomori,上鸟羽塔之森,上鳥羽塔之森,가미토바토노모리,0,1,南
842200,上鳥羽塔ノ森,上鳥羽塔ノ森(西行),,かみとばとうのもり,Kamitoba Tonomori,上鸟羽塔之森,上鳥羽塔之森,가미토바토노모리,0,1,南
842400,上鳥羽塔ノ森,上鳥羽塔ノ森(北行),,かみとばとうのもり,Kamitoba Tonomori,上鸟羽塔之森,上鳥羽塔之森,가미토바토노모리,0,1,南
843100,桂坂センター前,桂坂センター前(東行),,かつらざかせんたーまえ,Katsurazaka Center-mae,桂坂Center前（桂坂中心）,桂坂Center前（桂坂中心）,가쓰라자카센타마에,1,3,西
843200,桂坂センター前,桂坂センター前(西行),,かつらざかせんたーまえ,Katsurazaka Center-mae,桂坂Center前（桂坂中心）,桂坂Center前（桂坂中心）,가쓰라자카센타마에,1,3,西
844100,天蓋公園前,天蓋公園前(東行),,てんがいこうえんまえ,Tengai Koen-mae,天盖公园前,天蓋公園前,덴가이코엔마에,1,3,西
844200,天蓋公園前,天蓋公園前(西行),,てんがいこうえんまえ,Tengai Koen-mae,天盖公园前,天蓋公園前,덴가이코엔마에,1,3,西
845300,西桂坂,西桂坂(南行),,にしかつらざか,Nishi-Katsurazaka,西桂坂,西桂坂,니시카쓰라자카,1,3,西
845400,西桂坂,西桂坂(北行),,にしかつらざか,Nishi-Katsurazaka,西桂坂,西桂坂,니시카쓰라자카,1,3,西
846400,北沓掛町六丁目,北沓掛六丁目(北行),,きたくつかけちょうろくちょうめ,Kitakutsukakecho 6(roku)-chome,北沓挂町六丁目,北沓掛町六丁目,기타쿠쓰카케초육초메,1,3,西
847100,南工業団地前,南工業団地前(東行),,みなみこうぎょうだんちまえ,Minami Kogyodanchi-mae,南工业团地前,南工業團地前,미나미코교단치마에,0,1,南
848200,下津林大般若町,下津林大般若町(西行),,しもつばやしだいはんにゃちょう,Shimotsubayashi Daihannyacho,下津林大般若町,下津林大般若町,시모쓰바야시다이한냐초,1,2,西
848300,下津林大般若町,下津林大般若町(南行),,しもつばやしだいはんにゃちょう,Shimotsubayashi Daihannyacho,下津林大般若町,下津林大般若町,시모쓰바야시다이한냐초,1,2,西
848400,下津林大般若町,下津林大般若町(北行),,しもつばやしだいはんにゃちょう,Shimotsubayashi Daihannyacho,下津林大般若町,下津林大般若町,시모쓰바야시다이한냐초,1,2,西
849100,大枝山町西,大枝山町西(東行),,おおえやまちょうにし,Oeyamacho-Nishi,大枝山町西,大枝山町西,오에야마초니시,1,3,西
849200,大枝山町西,大枝山町西(西行),,おおえやまちょうにし,Oeyamacho-Nishi,大枝山町西,大枝山町西,오에야마초니시,1,3,西
850300,ふれあいの里,ふれあいの里(南行),,ふれあいのさと,Fureainosato,Fureai之里,Fureai之里,후레아이노사토,1,3,西
850400,ふれあいの里,ふれあいの里(北行),,ふれあいのさと,Fureainosato,Fureai之里,Fureai之里,후레아이노사토,1,3,西
851100,桂坂小学校前,桂坂小学校前(東行),,かつらざかしょうがっこうまえ,Katsurazaka Shogakko-mae,桂坂小学校前,桂坂小學校前,가쓰라자카쇼갓코마에,1,3,西
851200,桂坂小学校前,桂坂小学校前(西行),,かつらざかしょうがっこうまえ,Katsurazaka Shogakko-mae,桂坂小学校前,桂坂小學校前,가쓰라자카쇼갓코마에,1,3,西
852100,峰ヶ堂町三丁目,峰ヶ堂町三丁目(東行),,みねがどうちょうさんちょうめ,Minegadocho 3(san)-chome,峰堂町三丁目,峰堂町三丁目,미네가도초산초메,1,3,西
852200,峰ヶ堂町三丁目,峰ヶ堂町三丁目(西行),,みねがどうちょうさんちょうめ,Minegadocho 3(san)-chome,峰堂町三丁目,峰堂町三丁目,미네가도초산초메,1,3,西
853100,東桂坂,東桂坂(東行),,ひがしかつらざか,Higashi-Katsurazaka,东桂坂,東桂坂,히가시카쓰라자카,1,3,西
853200,東桂坂,東桂坂(西行),,ひがしかつらざか,Higashi-Katsurazaka,东桂坂,東桂坂,히가시카쓰라자카,1,3,西
854100,桂御陵坂,桂御陵坂(東行),,かつらごりょうざか,Katsura Goryozaka,桂御陵坂,桂御陵坂,가쓰라고료자카,1,3,西
854200,桂御陵坂,桂御陵坂(西行),,かつらごりょうざか,Katsura Goryozaka,桂御陵坂,桂御陵坂,가쓰라고료자카,1,3,西
855100,大枝山町東,大枝山町東(東行),,おおえやまちょうひがし,Oeyamacho-Higashi,大枝山町东,大枝山町東,오에야마초히가시,1,3,西
855200,大枝山町東,大枝山町東(西行),,おおえやまちょうひがし,Oeyamacho-Higashi,大枝山町东,大枝山町東,오에야마초히가시,1,3,西
856002,山越中町,山越中町(おりば(操車場内)),,やまごえなかちょう,Yamagoe Nakacho,山越中町,山越中町,야마고에나카초,0,1,右
856300,山越中町,山越中町(南行),,やまごえなかちょう,Yamagoe Nakacho,山越中町,山越中町,야마고에나카초,0,1,右
856400,山越中町,山越中町(北行),,やまごえなかちょう,Yamagoe Nakacho,山越中町,山越中町,야마고에나카초,0,1,右
857300,やまごえ温水プール前,やまごえ温水プール前(南行),,やまごえおんすいぷーるまえ,Yamagoe Onsui Pool-mae,山越温水pool前,山越溫水pool前,야마고에온스이푸루마에,0,1,右
857400,やまごえ温水プール前,やまごえ温水プール前(北行),,やまごえおんすいぷーるまえ,Yamagoe Onsui Pool-mae,山越温水pool前,山越溫水pool前,야마고에온스이푸루마에,0,1,右
858300,峰ヶ堂町一丁目,峰ヶ堂町一丁目(南行),,みねがどうちょういっちょうめ,Minegadocho 1(ichi)-chome,峰堂町一丁目,峰堂町一丁目,미네가도초잇초메,1,3,西
858400,峰ヶ堂町一丁目,峰ヶ堂町一丁目(北行),,みねがどうちょういっちょうめ,Minegadocho 1(ichi)-chome,峰堂町一丁目,峰堂町一丁目,미네가도초잇초메,1,3,西
860400,ライトハウス前,ライトハウス前(北行),,らいとはうすまえ,Lighthouse-mae,Lighthouse前,Lighthouse前,라이토하우스마에,0,1,北
863001,太秦天神川駅前,太秦天神川駅前(おりば),,うずまさてんじんがわえきまえ,Uzumasa Tenjingawa Station,太秦天神川站前,太秦天神川車站前,우즈마사텐진가와에키마에,0,1,右
863100,太秦天神川駅前,太秦天神川駅前(C),C,うずまさてんじんがわえきまえ,Uzumasa Tenjingawa Station,太秦天神川站前,太秦天神川車站前,우즈마사텐진가와에키마에,0,1,右
863210,太秦天神川駅前,太秦天神川駅前(A),A,うずまさてんじんがわえきまえ,Uzumasa Tenjingawa Station,太秦天神川站前,太秦天神川車站前,우즈마사텐진가와에키마에,0,1,右
863220,太秦天神川駅前,太秦天神川駅前(B),B,うずまさてんじんがわえきまえ,Uzumasa Tenjingawa Station,太秦天神川站前,太秦天神川車站前,우즈마사텐진가와에키마에,0,1,右
883300,京阪中書島・伏見港公園,京阪中書島・伏見港公園(駅南側),,けいはんちゅうしょじま・ふしみこうこうえん,Keihan Chushojima / Fushimiko Koen,京阪中书岛・伏见港公园,京阪中書島・伏見港公園,게이한추쇼지마・후시미코코엔,0,1,伏
883400,京阪中書島・伏見港公園,京阪中書島・伏見港公園(公園側),,けいはんちゅうしょじま・ふしみこうこうえん,Keihan Chushojima / Fushimiko Koen,京阪中书岛・伏见港公园,京阪中書島・伏見港公園,게이한추쇼지마・후시미코코엔,0,1,伏
885300,京大桂キャンパス前,京大桂キャンパス前(南行),,きょうだいかつらきゃんぱすまえ,Kyodai Katsura Campus-mae (Kyoto University Katsura Campus),京大桂Campus前（京都大学桂校园）,京大桂Campus前（京都大學桂校區）,교다이카쓰라캰파스마에（교토대학 가쓰라캠퍼스）,1,3,西
885400,京大桂キャンパス前,京大桂キャンパス前(北行),,きょうだいかつらきゃんぱすまえ,Kyodai Katsura Campus-mae (Kyoto University Katsura Campus),京大桂Campus前（京都大学桂校园）,京大桂Campus前（京都大學桂校區）,교다이카쓰라캰파스마에（교토대학 가쓰라캠퍼스）,1,3,西
886300,桂イノベーションパーク前,桂イノベーションパーク前(南行),,かつらいのべーしょんぱーくまえ,Katsura Innovation Park-mae,桂Innovation Park前（桂革新园）,桂Innovation Park前（桂產業創新園區）,가쓰라이노베숀파쿠마에,1,3,西
886400,桂イノベーションパーク前,桂イノベーションパーク前(北行),,かつらいのべーしょんぱーくまえ,Katsura Innovation Park-mae,桂Innovation Park前（桂革新园）,桂Innovation Park前（桂產業創新園區）,가쓰라이노베숀파쿠마에,1,3,西
902300,荒神口,荒神口(南行),A,こうじんぐち,Kojin-guchi,荒神口,荒神口,고진구치,0,1,上
902400,荒神口,荒神口(北行),,こうじんぐち,Kojin-guchi,荒神口,荒神口,고진구치,0,1,上
905100,東山仁王門,東山仁王門(東行),,ひがしやまにおうもん,Higashiyama Niomon,东山仁王门,東山仁王門,히가시야마니오몬,0,1,左
905300,東山仁王門,東山仁王門(南行),,ひがしやまにおうもん,Higashiyama Niomon,东山仁王门,東山仁王門,히가시야마니오몬,0,1,左
905400,東山仁王門,東山仁王門(北行),,ひがしやまにおうもん,Higashiyama Niomon,东山仁王门,東山仁王門,히가시야마니오몬,0,1,左
906300,飛鳥井町,飛鳥井町(A),A,あすかいちょう,Asukaicho,飞鸟井町,飛鳥井町,아스카이초,0,1,左
906410,飛鳥井町,飛鳥井町(C),C,あすかいちょう,Asukaicho,飞鸟井町,飛鳥井町,아스카이초,0,1,左
906420,飛鳥井町,飛鳥井町(B),B,あすかいちょう,Asukaicho,飞鸟井町,飛鳥井町,아스카이초,0,1,左
910100,博物館三十三間堂前,博物館三十三間堂前(東行),A,はくぶつかんさんじゅうさんげんどうまえ,Hakubutsukan Sanjusangendo-mae,博物馆三十三间堂前,博物館三十三間堂前,하쿠부쓰칸산주산겐도마에,0,1,東
910200,博物館三十三間堂前,博物館三十三間堂前(西行),B,はくぶつかんさんじゅうさんげんどうまえ,Hakubutsukan Sanjusangendo-mae,博物馆三十三间堂前,博物館三十三間堂前,하쿠부쓰칸산주산겐도마에,0,1,東
911100,右京ふれあい文化会館前,右京ふれあい文化会館前(東行),,うきょうふれあいぶんかかいかんまえ,Ukyo Fureai Bunka Kaikan-mae,右京Fureai文化会馆前,右京Fureai文化會館前,우쿄후레아이분카카이칸마에,0,1,右
911200,右京ふれあい文化会館前,右京ふれあい文化会館前(西行),,うきょうふれあいぶんかかいかんまえ,Ukyo Fureai Bunka Kaikan-mae,右京Fureai文化会馆前,右京Fureai文化會館前,우쿄후레아이분카카이칸마에,0,1,右
952200,星の坂２番,星の坂２番(バス停),,ほしのさかにばん,Hoshinosaka 2 (Get off only at night),星之坂2番（只在晚上下车）,星之阪2番（只在晚上下車）,호시노사카2반（야간에 하차 전용）,1,3,西
953400,星の坂３番,星の坂３番(バス停),,ほしのさかさんばん,Hoshinosaka 3 (Get off only at night),星之坂3番（只在晚上下车）,星之阪3番（只在晚上下車）,호시노사카3반（야간에 하차 전용）,1,3,西
954100,星の坂４番,星の坂４番(バス停),,ほしのさかよんばん,Hoshinosaka 4 (Get off only at night),星之坂4番（只在晚上下车）,星之阪4番（只在晚上下車）,호시노사카4반（야간에 하차 전용）,1,3,西
955100,星の坂５番,星の坂５番(バス停),,ほしのさかごばん,Hoshinosaka 5 (Get off only at night),星之坂5番（只在晚上下车）,星之阪5番（只在晚上下車）,호시노사카5반（야간에 하차 전용）,1,3,西
956200,星の坂６番,星の坂６番(バス停),,ほしのさかろくばん,Hoshinosaka 6 (Get off only at night),星之坂6番（只在晚上下车）,星之阪6番（只在晚上下車）,호시노사카6반（야간에 하차 전용）,1,3,西
68210,壬生寺道,壬生寺道(西行臨時),,みぶでらみち,Mibudera-michi (Mibu-dera Temple),壬生寺道,壬生寺道,미부데라미치,0,1,中
